[
{"title": "45R", "location": "\n\t\t\t\t\t\t\tL3 / Shop 3083", "info": "\n\t\t\t\t\t\t11:00 \u2013 21:00 Mon \u2013 Sun and public holidays\n\t\t\t\t\t\t", "tel": "http://ifc.com.hk/en/mall/shopping/"},
{"title": "7 for All Mankind", "location": "\t\t\t\t\t\t", "info": "\n\t\t\t\t\t\t10:00 \u2013 21:00 Mon \u2013 Sun and Public Holidays\n\t\t\t\t\t\t", "tel": "http://ifc.com.hk/en/mall/dining/"},
{"title": "Accessorize", "location": "\n\t\t\t\t\t\t\tL3 / Shop 3085C", "info": "\n\t\t\t\t\t\t10:00 \u2013 22:00 Mon- Sun and Public Holiday\n\t\t\t\t\t\t", "tel": "http://ifc.com.hk/en/mall/movies/"},
{"title": "Acne Studios", "location": "\t\t\t\t\t\t", "info": "\n\t\t\t\t\t\t10:00  \u2013 20:00 Mon \u2013 Sun and Public Holidays\n\t\t\t\t\t\t", "tel": "http://ifc.com.hk/en/mall/happenings/"},
{"title": "Aesop", "location": "\n\t\t\t\t\t\t\tL1 / Shop 1025A", "info": "\n\t\t\t\t\t\t10:00 \u201321:00 Mon \u2013 Sun and Public Holidays\n\t\t\t\t\t\t", "tel": "http://ifc.com.hk/en/mall/services/"},
{"title": "agn\u00e8s b. LA LOGGIA bis", "location": "\t\t\t\t\t\t", "info": "\n\t\t\t\t\t\t10:00 \u2013 21:00 Mon-Sun and Public Holidays", "tel": "http://ifc.com.hk/en/mall/parking/"},
{"title": "AIGLE", "location": "\n\t\t\t\t\t\t\tL2 / Shop 2086", "info": "\nCafe: 9:30 \u2013 21:30 Mon-Sun and Public Holidays\n\t\t\t\t\t\t", "tel": "http://ifc.com.hk/en/mall/location/"},
{"title": "Alexandre Zouari Paris", "location": "\t\t\t\t\t\t", "info": "\n\t\t\t\t\t\t10:30-21:00 Mon-Sun and Public Holidays\n\t\t\t\t\t\t", "tel": "http://ifc.com.hk/en/mall/floorplan/"},
{"title": "Alfred Dunhill", "location": "\n\t\t\t\t\t\t\tL1 / Shop 1088B", "info": "\n\t\t\t\t\t\t10:00 \u2013 21:00 Mon \u2013 Sun and Public Holidays\n\t\t\t\t\t\t", "tel": "http://ifc.com.hk/ic/?lang=en"},
{"title": "alice + olivia", "location": "\t\t\t\t\t\t", "info": "\n\t\t\t\t\t\t\t\t\t\t\t\t", "tel": "http://ifc.com.hk/clubic/en/"},
{"title": "American Vintage", "location": "\n\t\t\t\t\t\t\tL3 / Shop 3002 \u2013 05", "info": "\n\t\t\t\t\t\t10:00 \u2013 21:00 Mon \u2013 Sun and Public Holidays\n\t\t\t\t\t\t", "tel": "http://ifc.com.hk/en/mall/retail-leasing/"},
{"title": "ANTEPRIMA", "location": "\t\t\t\t\t\t", "info": "\n\t\t\t\t\t\t10:30 \u2013 21:00 Mon-Sun and Public Holidays\n\t\t\t\t\t\t", "tel": "http://ifc.com.hk/en/mall/"},
{"title": "APM Monaco", "location": "\n\t\t\t\t\t\t\tL3 / Shop 3089", "info": "\n\t\t\t\t\t\t10:30 \u2013 20:30 Mon \u2013 Sun and Public Holidays \n\t\t\t\t\t\t", "tel": "http://ifc.com.hk/en/office/one-two-ifc/"},
{"title": "Apple Store", "location": "\t\t\t\t\t\t", "info": "\n\t\t\t\t\t\t10:00 \u2013 21:00 Mon- Sun and Public Holidays\n\t\t\t\t\t\t", "tel": "http://ifc.com.hk/en/four-seasons-hotel/"},
{"title": "ARC'TERYX", "location": "\n\t\t\t\t\t\t\tL1 / Shop 1056 \u2013 57", "info": "\n\t\t\t\t\t\t10:00 \u2013 21:00 Mon \u2013 Sun and Public Holidays\n\t\t\t\t\t\t", "tel": "http://ifc.com.hk/en/four-seasons-place/"},
{"title": "ART\u0112 Madrid", "location": "\t\t\t\t\t\t", "info": "\n\t\t\t\t\t\t11:00 \u2013 21:00 Mon \u2013 Sun & Public Holidays\n\t\t\t\t\t\t", "tel": "http://ifc.com.hk/en/mall/shopping/"},
{"title": "Ascot Chang", "location": "\n\t\t\t\t\t\t\tL2 / Shop 2089B", "info": "\n\t\t\t\t\t\t10:00 \u2013 21:00 Mon- Sun and Public Holidays\n\t\t\t\t\t\t", "tel": "http://ifc.com.hk/tc/mall/shopping/"},
{"title": "Atelier Cologne", "location": "\t\t\t\t\t\t", "info": "\n\t\t\t\t\t\t10:00 \u2013 20:00 Mon \u2013 Sun and Public Holidays\n\t\t\t\t\t\t", "tel": "http://ifc.com.hk/sc/mall/shopping/"},
{"title": "ATSURO TAYAMA", "location": "\n\t\t\t\t\t\t\tL3 / Shop 3078B", "info": "\n\t\t\t\t\t\t10:00 \u2013 21:00 Mon \u2013 Sun and public holidays\n\t\t\t\t\t\t", "tel": "#category"},
{"title": "Audemars Piguet", "location": "\t\t\t\t\t\t", "info": "\n\t\t\t\t\t\t11:00 \u2013 20:30 Mon \u2013 Sun and Public Holidays\n\t\t\t\t\t\t", "tel": "#listView"},
{"title": "AV Life - Prestige", "location": "\n\t\t\t\t\t\t\tL3 / Shop 3086 \u2013 87", "info": "\n\t\t\t\t\t\t10:00 \u2013 20:00 Mon \u2013 Sun\n\t\t\t\t\t\t", "tel": "tel:2556 9745"},
{"title": "BabyNes\u00ae Nutrition System Boutique", "location": "\t\t\t\t\t\t", "info": "\n\t\t\t\t\t\t10:00 \u2013 20:30 Mon \u2013  Sat", "tel": "http://ifc.com.hk/mall/shop/45r/"},
{"title": "Bang & Olufsen", "location": "\n\t\t\t\t\t\t\tL3 / Shop 3079-80", "info": "\n10:30 \u2013 20:30 Sun and Public Holidays\n\t\t\t\t\t\t", "tel": "tel:2722 9666"},
{"title": "ba&sh", "location": "\t\t\t\t\t\t", "info": "\n\t\t\t\t\t\t10:00 \u2013 20:30 Mon-Sun and Public Holidays\n\t\t\t\t\t\t", "tel": "http://ifc.com.hk/mall/shop/7-for-all-mankind-coming-soon/"},
{"title": "BEYORG\u00ae | Beyond Organic", "location": "\n\t\t\t\t\t\t\tL1 / Shop 1062", "info": "\n\t\t\t\t\t\t10:00 \u2013 20:00 Mon \u2013 Sun and Public Holidays\n\t\t\t\t\t\t", "tel": "tel:3101 1170 "},
{"title": "Bobbi Brown", "location": "\t\t\t\t\t\t", "info": "\n\t\t\t\t\t\t10:00 \u2013 21:00 Mon \u2013 Sun and Public Holidays\n\t\t\t\t\t\t", "tel": "http://ifc.com.hk/mall/shop/accessorize/"},
{"title": "Boggi Milano", "location": "\n\t\t\t\t\t\t\tL1 / Shop 1100 \u2013 03", "info": "\n\t\t\t\t\t\t10:00 \u2013 21:00 Mon \u2013 Sun and Public Holidays\u2028\n\t\t\t\t\t\t", "tel": "http://ifc.com.hk/mall/shop/acne-studios-coming-soon/"},
{"title": "Bookazine", "location": "L2 / Shop 2091 \u2013 95", "info": "\n\t\t\t\t\t\t10:00 \u2013 21:00 Mon \u2013 Sun and Public Holidays\n\t\t\t\t\t\t", "tel": "tel:2544 4489"},
{"title": "BOSE", "location": "L3 / Shop 3093 \u2013 97", "info": "\n\t\t\t\t\t\tMon to Sun and Public Holidays: 10:00 \u2013 20:30\n\t\t\t\t\t\t", "tel": "http://ifc.com.hk/mall/shop/aesop/"},
{"title": "Bottega Veneta", "location": "\t\t\t\t\t\t", "info": "\n\t\t\t\t\t\t10:00 \u2013 21:00 Mon \u2013 Sun and Public Holidays\n\t\t\t\t\t\t", "tel": "tel:2706 3116"},
{"title": "Brooks Brothers", "location": "\n\t\t\t\t\t\t\tL3 / Shop 3081", "info": "\n\t\t\t\t\t\t10:00 \u2013 21:00 Mon \u2013 Sun and Public Holidays\n\t\t\t\t\t\t", "tel": "http://ifc.com.hk/mall/shop/agnes-b-la-loggia-bis/"},
{"title": "Brunello Cucinelli", "location": "\t\t\t\t\t\t", "info": "\n\t\t\t\t\t\t10:30 \u2013 20:00 Mon \u2013 Sat", "tel": "tel:2918 1190"},
{"title": "BVLGARI", "location": "\n\t\t\t\t\t\t\tL1 / Shop 1018A", "info": "\n11:00 \u2013 20:00 Sun and Public Holidays\n\t\t\t\t\t\t", "tel": "http://ifc.com.hk/mall/shop/aigle-2/"},
{"title": "Calvin Klein Underwear", "location": "\t\t\t\t\t\t", "info": "\n\t\t\t\t\t\t10:00 \u2013 21:00 Mon \u2013 Sun and Public Holidays\n\t\t\t\t\t\t", "tel": "tel:3152 2213"},
{"title": "CARAT* London", "location": "\n\t\t\t\t\t\t\tL2 / Shop 2031", "info": "\n\t\t\t\t\t\t10:30 \u2013 21:00 Mon \u2013 Sun and Public Holidays\n\t\t\t\t\t\t", "tel": "http://ifc.com.hk/mall/shop/alexandre-zouari-paris/"},
{"title": "C\u00c9LINE", "location": "\t\t\t\t\t\t", "info": "\n\t\t\t\t\t\t10:30 \u2013 19:30 Mon \u2013 Sun and Public Holidays\n\t\t\t\t\t\t", "tel": "http://ifc.com.hk/mall/shop/alfred-dunhill/"},
{"title": "CHANEL BEAUT\u00c9 (Coming soon)", "location": "\n\t\t\t\t\t\t\tL1 / Shop 1008", "info": "\n\t\t\t\t\t\t10:00 \u2013 21:00 Mon \u2013 Sun and Public holidays\n\t\t\t\t\t\t", "tel": "tel:2234 7253"},
{"title": "CHANEL BEAUT\u00c9 Pop-up", "location": "\t\t\t\t\t\t", "info": "\n\t\t\t\t\t\t10:00 \u2013 21:00 Mon \u2013Sun and Public Holidays\n\t\t\t\t\t\t", "tel": "http://ifc.com.hk/mall/shop/alice-olivia/"},
{"title": "Chateau Bardens", "location": "\n\t\t\t\t\t\t\tL2 / Shop 2090", "info": "\n\t\t\t\t\t\t10:30 \u2013 20:00 Mon \u2013 Sun and Public Holidays\n\t\t\t\t\t\t", "tel": "tel:2234 7859"},
{"title": "CHAUMET", "location": "\t\t\t\t\t\t", "info": "\n\t\t\t\t\t\t10:00 \u2013 21:00 Mon \u2013 Fri, Sun and Public Holidays", "tel": "http://ifc.com.hk/mall/shop/american-vintage/"},
{"title": "Chopard", "location": "\n\t\t\t\t\t\t\tL2 / Shop 2040", "info": "\n10:00 \u2013 20:00  Sat\n\t\t\t\t\t\t", "tel": "tel:2167 7386"},
{"title": "Chow Sang Sang", "location": "\t\t\t\t\t\t", "info": "\n\t\t\t\t\t\t10:00 \u2013 21:00 Mon \u2013 Fri, Sun and Public Holidays", "tel": "http://ifc.com.hk/mall/shop/anteprima/"},
{"title": "city\u2019super", "location": "\n\t\t\t\t\t\t\tL2 / Shop 2002 \u2013 03", "info": "\n10:00 \u2013 20:00  Sat\n\t\t\t\t\t\t", "tel": "tel:21170230"},
{"title": "Clarins", "location": "\t\t\t\t\t\t", "info": "\n\t\t\t\t\t\t10:30 \u2013 21:00 Mon \u2013 Sun & Public Holidays\n\t\t\t\t\t\t", "tel": "http://ifc.com.hk/mall/shop/apm-monaco-coming-soon/"},
{"title": "Claudie Pierlot", "location": "\n\t\t\t\t\t\t\tL1 / Shop 1032", "info": "\n\t\t\t\t\t\t10:00 \u2013 19:30 Mon \u2013 Saturday", "tel": "tel:3972 1500"},
{"title": "Cl\u00e9 de Peau Beaut\u00e9", "location": "\t\t\t\t\t\t", "info": "\n10:30 \u2013 19:00 Sunday and Public Holidays\n\t\t\t\t\t\t", "tel": "http://ifc.com.hk/mall/shop/apple/"},
{"title": "Club Monaco", "location": "\n\t\t\t\t\t\t\tL2 / Shop 2008 \u2013 09", "info": "\n\t\t\t\t\t\t10:30 \u2013 19:30 Mon \u2013 Sun and Public Holidays\n\t\t\t\t\t\t", "tel": "tel:2110 9434"},
{"title": "COACH", "location": "\t\t\t\t\t\t", "info": "\n\t\t\t\t\t\t10:30 \u2013 21:00 Mon \u2013 Sun and Public Holidays\n\t\t\t\t\t\t", "tel": "http://ifc.com.hk/mall/shop/arcteryx-coming-soon/"},
{"title": "COS", "location": "\n\t\t\t\t\t\t\tL3 / Shop 3085A", "info": "\n\t\t\t\t\t\t10:00 \u2013 22:00 Mon \u2013 Sun and Public Holidays\n\t\t\t\t\t\t", "tel": "tel:2295 3980"},
{"title": "DIESEL", "location": "\t\t\t\t\t\t", "info": "\n\t\t\t\t\t\t10:00 \u2013 21:00 Mon \u2013 Thu", "tel": "http://ifc.com.hk/mall/shop/arte-madrid/"},
{"title": "Dior Beauty\u00a0", "location": "\n\t\t\t\t\t\t\tL1 / Shop 1091B", "info": "\n10:00 \u2013 21:30 Fri \u2013 Sun and Public Holidays\n\t\t\t\t\t\t", "tel": "tel:2295 3833"},
{"title": "diptyque", "location": "\t\t\t\t\t\t", "info": "\n\t\t\t\t\t\t10:00 \u2013 21:00 Mon \u2013 Sun and Public Holidays\n\t\t\t\t\t\t", "tel": "http://ifc.com.hk/mall/shop/ascot-chang/"},
{"title": "Disc Plus", "location": "\n\t\t\t\t\t\t\tL1 / Shop 1085", "info": "\n\t\t\t\t\t\t10:00 \u2013 21:00 Monday \u2013 Sunday and Public Holidays\n\t\t\t\t\t\t", "tel": "tel:2344 0770"},
{"title": "ECCO", "location": "\t\t\t\t\t\t", "info": "\n\t\t\t\t\t\t10:00 \u2013 21:00 Mon \u2013 Sun and Public Holidays\n\t\t\t\t\t\t", "tel": "http://ifc.com.hk/mall/shop/atelier-cologne/"},
{"title": "Elegant Watch & Jewellery", "location": "\n\t\t\t\t\t\t\tL1 / Shop 1099", "info": "\n\t\t\t\t\t\t10:30 \u2013 21:00 Mon \u2013 Sun and Public Holidays \n\t\t\t\t\t\t", "tel": "tel:2167 7308"},
{"title": "Emilio Pucci", "location": "\t\t\t\t\t\t", "info": "\n\t\t\t\t\t\t10:00 \u2013 22:00 Mon \u2013 Sun and Public Holidays\n\t\t\t\t\t\t", "tel": "http://ifc.com.hk/mall/shop/atsuro-tayama/"},
{"title": "Enoteca", "location": "\n\t\t\t\t\t\t\tL3 / Shop 3092C", "info": "\n\t\t\t\t\t\t10:00 \u2013 21:00 Mon \u2013 Thur, Sun and Public Holidays", "tel": "tel:2818 0008"},
{"title": "Ermenegildo Zegna", "location": "\t\t\t\t\t\t", "info": "\n10:00 \u2013 21:30 Fri \u2013 Sat\n\t\t\t\t\t\t", "tel": "http://ifc.com.hk/mall/shop/audemars-piguet/"},
{"title": "Est\u00e9e Lauder", "location": "\n\t\t\t\t\t\t\tL2 / Shop 2011", "info": "\n\t\t\t\t\t\t10:00 \u2013 21:00 Mon \u2013 Sun and Public Holidays\n\t\t\t\t\t\t", "tel": "tel:2295 3398"},
{"title": "ETRO", "location": "\t\t\t\t\t\t", "info": "\n\t\t\t\t\t\t10:00 \u2013 21:00 Mon \u2013 Sun and Public Holidays\n\t\t\t\t\t\t", "tel": "http://ifc.com.hk/mall/shop/av-life/"},
{"title": "FALKE (Coming soon)", "location": "\n\t\t\t\t\t\t\tL2 / Shop 2038", "info": "\n\t\t\t\t\t\t10:00 \u2013 21:30 Mon \u2013 Sun and public holidays\n\t\t\t\t\t\t", "tel": "tel:2624 9166"},
{"title": "Fedeli", "location": "\t\t\t\t\t\t", "info": "\n\t\t\t\t\t\t10:00 \u2013 21:00 Mon \u2013 Sun and Public Holidays\n\t\t\t\t\t\t", "tel": "http://ifc.com.hk/mall/shop/babynes-coming-soon/"},
{"title": "flannel flowers", "location": "\n\t\t\t\t\t\t\tL1 / Shop 1096A", "info": "\n\t\t\t\t\t\t10:00 \u2013 20:00 Mon \u2013 Sun and Public Holidays\n\t\t\t\t\t\t", "tel": "tel:2526 8800"},
{"title": "FRED", "location": "\t\t\t\t\t\t", "info": "\n\t\t\t\t\t\t10:00 \u2013 20:00 Mon \u2013 Sun and Public Holidays\n\t\t\t\t\t\t", "tel": "http://ifc.com.hk/mall/shop/bang-olufsen/"},
{"title": "fresh (Coming soon)", "location": "\n\t\t\t\t\t\t\tL2 / Shop 2037", "info": "\n\t\t\t\t\t\t10:30-21:00 Mon-Sun and Public Holidays\n\t\t\t\t\t\t", "tel": "tel:2339 1223"},
{"title": "FREYWILLE", "location": "\t\t\t\t\t\t", "info": "\n\t\t\t\t\t\t10:00 \u2013 20:00 Mon \u2013 Sun and Public Holidays\n\t\t\t\t\t\t", "tel": "http://ifc.com.hk/mall/shop/bash/"},
{"title": "FURLA", "location": "\n\t\t\t\t\t\t\tL2 / Shop 2041", "info": "\n\t\t\t\t\t\t10:00 \u2013 21:00 Mon \u2013 Sun and Public Holidays\n\t\t\t\t\t\t", "tel": "tel:2882 5218"},
{"title": "GEOX", "location": "\t\t\t\t\t\t", "info": "\n\t\t\t\t\t\t10:00-20:00 Mon-Sun & Public Holidays\n\t\t\t\t\t\t", "tel": "http://ifc.com.hk/mall/shop/beyorg-beyond-organic/"},
{"title": "Georg Jensen", "location": "\n\t\t\t\t\t\t\tL1 / Shop 1096B ", "info": "\n\t\t\t\t\t\t\t\t\t\t\t\t", "tel": "tel:2111 3912"},
{"title": "Giorgio Armani Beauty", "location": "\t\t\t\t\t\t", "info": "\n\t\t\t\t\t\t10:00 \u2013 20:00 Mon \u2013 Sun and Public Holiday\n\t\t\t\t\t\t", "tel": "http://ifc.com.hk/mall/shop/bobbi-brown/"},
{"title": "Giuseppe Zanotti", "location": "\n\t\t\t\t\t\t\tL1 / Shop 1040A", "info": "\n\t\t\t\t\t\t9:00 \u2013 21:00 Mon \u2013 Sun and Public Holidays\n\t\t\t\t\t\t", "tel": "tel:3106 4566"},
{"title": "Givenchy", "location": "\t\t\t\t\t\t", "info": "\n\t\t\t\t\t\t10:00 \u2013 20:00 Mon-Sun and Public Holidays\n\t\t\t\t\t\t", "tel": "http://ifc.com.hk/mall/shop/boggi-milano-coming-soon/"},
{"title": "Glasstique", "location": "\n\t\t\t\t\t\t\tL2 / Shop 2076", "info": "\n\t\t\t\t\t\t9:30 \u2013 21:00 Mon \u2013 Sun and Public Holidays\n\t\t\t\t\t\t", "tel": "tel:2813 2770"},
{"title": "Golden Goose Deluxe Brand\u00ae", "location": "\t\t\t\t\t\t", "info": "\n\t\t\t\t\t\t10:00 \u2013 22:00 Mon-Sun & Public Holidays\n\t\t\t\t\t\t", "tel": "http://ifc.com.hk/mall/shop/bookazine/"},
{"title": "GUCCI (coming soon)", "location": "\n\t\t\t\t\t\t\tL1 / Shop 1060", "info": "\n\t\t\t\t\t\t10:00 \u2013 21:30 Mon \u2013 Sun and Public Holidays\n\t\t\t\t\t\t", "tel": "tel:3100 0080"},
{"title": "Haglofs", "location": "\t\t\t\t\t\t", "info": "\n\t\t\t\t\t\t10:00 \u2013 20:30 Mon \u2013 Sun and Public Holidays\n\t\t\t\t\t\t", "tel": "http://ifc.com.hk/mall/shop/bose/"},
{"title": "HUBLOT", "location": "\n\t\t\t\t\t\t\tL1 / Shop LA1", "info": "\n\t\t\t\t\t\t10:30 \u2013 20:00 Mon \u2013 Sun and Public Holidays\n\t\t\t\t\t\t", "tel": "tel:2234 7078"},
{"title": "HUGO BOSS", "location": "\t\t\t\t\t\t", "info": "\n\t\t\t\t\t\t10:00 \u2013 21:00 Mon \u2013 Sun and Public Holidays\n\t\t\t\t\t\t", "tel": "http://ifc.com.hk/mall/shop/bottega-veneta/"},
{"title": "IWC Schaffhausen", "location": "\n\t\t\t\t\t\t\tL1 / Shop 1019B", "info": "\n\t\t\t\t\t\t10:00-20:00 Mon-Sun and Public Holidays\n\t\t\t\t\t\t", "tel": "tel:2234 7088"},
{"title": "J.CREW", "location": "\t\t\t\t\t\t", "info": "\n\t\t\t\t\t\t10:30 \u2013 20:00 Sun \u2013 Thu and Public Holidays", "tel": "http://ifc.com.hk/mall/shop/brooks-brothers/"},
{"title": "Jaeger-LeCoultre", "location": "\n\t\t\t\t\t\t\tL2 / Shop 2055", "info": "\n10:30 \u2013 20:30 Fri \u2013 Sat\n\t\t\t\t\t\t", "tel": "tel:2175 4268"},
{"title": "John Masters Organics", "location": "\t\t\t\t\t\t", "info": "\n\t\t\t\t\t\t10:00 \u2013 20:30 Mon \u2013 Sun and Public Holidays\n\t\t\t\t\t\t", "tel": "http://ifc.com.hk/mall/shop/brunello-cucinelli-coming-soon/"},
{"title": "kate spade new york", "location": "\n\t\t\t\t\t\t\tL2 / Shop 2045", "info": "\n\t\t\t\t\t\t10:00 \u2013 20:00 Mon \u2013 Sun and Public Holidays \n\t\t\t\t\t\t", "tel": "tel:2234 7668"},
{"title": "KENZO", "location": "\t\t\t\t\t\t", "info": "\n\t\t\t\t\t\t10:30 \u2013 20:00 Mon \u2013 Sun and Public Holidays\n\t\t\t\t\t\t", "tel": "http://ifc.com.hk/mall/shop/bvlgari/"},
{"title": "Kiehl\u2019s", "location": "\n\t\t\t\t\t\t\tL1 / Shop 1011 \u2013 12", "info": "\n\t\t\t\t\t\t11:00-21:00 Mon \u2013 Sun and Public Holidays\n\t\t\t\t\t\t", "tel": "tel:2537 0100"},
{"title": "KIKO MILANO", "location": "\t\t\t\t\t\t", "info": "\n\t\t\t\t\t\t10:00-20:00 Mon-Sun and Public Holidays\n\t\t\t\t\t\t", "tel": "http://ifc.com.hk/mall/shop/calvin-klein-underwear-2/"},
{"title": "KINJI", "location": "\n\t\t\t\t\t\t\tL1 / Shop 1041 \u2013 49", "info": "\n\t\t\t\t\t\t10:00 \u2013 21:00 Mon \u2013 Sun and Public Holidays\n\t\t\t\t\t\t", "tel": "tel:2234 7372"},
{"title": "Kiton", "location": "\t\t\t\t\t\t", "info": "\n\t\t\t\t\t\t9:30 \u2013 20:15 Mon \u2013 Sun and Public Holidays\n\t\t\t\t\t\t", "tel": "http://ifc.com.hk/mall/shop/carat-london/"},
{"title": "la prairie", "location": "\n\t\t\t\t\t\t\tL1 / Shop 1089", "info": "\n\t\t\t\t\t\t10:00 \u2013 21:00 Mon \u2013 Sun and Public Holidays\n\t\t\t\t\t\t", "tel": "tel:2805 8666"},
{"title": "LALIQUE", "location": "\t\t\t\t\t\t", "info": "\n\t\t\t\t\t\t10:00 \u2013 20:00 Mon \u2013 Sun and Public Holidays\n\t\t\t\t\t\t", "tel": "http://ifc.com.hk/mall/shop/celine/"},
{"title": "Lane Crawford", "location": "\n\t\t\t\t\t\t\tL3 / Shop 3085B", "info": "\n\t\t\t\t\t\t10:00-21:00 Mon \u2013 Sun and Public holidays\n\t\t\t\t\t\t", "tel": "tel:2805 0880"},
{"title": "Lane Crawford Home", "location": "\t\t\t\t\t\t", "info": "\n\t\t\t\t\t\t10:30 \u2013 21:00 Mon \u2013 Sun and Public Holidays\n\t\t\t\t\t\t", "tel": "http://ifc.com.hk/mall/shop/chanel-beaute/"},
{"title": "LANVIN-Ladies", "location": "\n\t\t\t\t\t\t\tL1 / Shop 1059A", "info": "\n\t\t\t\t\t\t10:30-20:00 Mon-Sun and Public holiday\n\t\t\t\t\t\t", "tel": "tel:2805 0880"},
{"title": "Laur\u00e8l", "location": "\t\t\t\t\t\t", "info": "\n\t\t\t\t\t\t10:00 \u2013 21:00 Mon \u2013 Sun and Public Holidays\n\t\t\t\t\t\t", "tel": "http://ifc.com.hk/mall/shop/chanel-pop-up/"},
{"title": "Le Labo", "location": "\n\t\t\t\t\t\t\tL1 / Shop 1039", "info": "\n\t\t\t\t\t\t10:00 \u2013 22:00 Mon-Sun and Public Holidays\n\t\t\t\t\t\t", "tel": "tel:2845 9788"},
{"title": "LEICA", "location": "\t\t\t\t\t\t", "info": "\n\t\t\t\t\t\t10:30 \u2013 20:00 Mon \u2013 Sun and Public Holidays\n\t\t\t\t\t\t", "tel": "http://ifc.com.hk/mall/shop/chateau-bardens/"},
{"title": "LensCrafters", "location": "\n\t\t\t\t\t\t\tL1 / Shop 1038", "info": "\n\t\t\t\t\t\t10:30 \u2013 20:00 Mon \u2013 Sun and Public Holidays\n\t\t\t\t\t\t", "tel": "tel:2536 9338"},
{"title": "Life Digital-Gadgets", "location": "\t\t\t\t\t\t", "info": "\n\t\t\t\t\t\t10:00 \u2013 21:00 Mon \u2013 Sun and Public Holidays\n\t\t\t\t\t\t", "tel": "http://ifc.com.hk/mall/shop/chaumet/"},
{"title": "Linda Farrow", "location": "\n\t\t\t\t\t\t\tL1 / Shop 1063", "info": "\n\t\t\t\t\t\t10:30 \u2013 19:30 Mon \u2013 FRI", "tel": "tel:2805 0777"},
{"title": "Links of London", "location": "\t\t\t\t\t\t", "info": "\n11:00 \u2013 19:30 Sun and Public Holidays\n\t\t\t\t\t\t", "tel": "http://ifc.com.hk/mall/shop/chopard/"},
{"title": "LIQUID GOLD", "location": "\n\t\t\t\t\t\t\tL1 / Shop 1051", "info": "\n\t\t\t\t\t\t10:00 \u2013 21:00 Mon \u2013 Sun and Public Holidays\n\t\t\t\t\t\t", "tel": "tel:2295 3882"},
{"title": "L\u2019OCCITANE", "location": "\t\t\t\t\t\t", "info": "\n\t\t\t\t\t\t10:00 \u2013 21:00 Mon \u2013 Sun and Public Holidays\n\t\t\t\t\t\t", "tel": "http://ifc.com.hk/mall/shop/chow-sang-sang/"},
{"title": "Loewe", "location": "\n\t\t\t\t\t\t\tL1 / Shop 1076", "info": "\n\t\t\t\t\t\t10:30 \u2013 19:30 Mon \u2013 Sun and Public Holidays\n\t\t\t\t\t\t", "tel": "tel:2736 3866"},
{"title": "Longchamp Pop-up Store", "location": "\t\t\t\t\t\t", "info": "\n\t\t\t\t\t\t10:30 \u2013 20:00 Mon \u2013 Sun and Public Holidays\n\t\t\t\t\t\t", "tel": "http://ifc.com.hk/mall/shop/citysuper/"},
{"title": "LORO PIANA", "location": "\n\t\t\t\t\t\t\tL1 / Shop 1083", "info": "\n\t\t\t\t\t\t10:30 \u2013 21:00 Mon-Sun and Public Holidays\n\t\t\t\t\t\t", "tel": "tel:2295 0827"},
{"title": "lululemon athletica", "location": "\t\t\t\t\t\t", "info": "\n\t\t\t\t\t\t10:00 \u2013 20:00 Mon \u2013 Sun and Public Holidays\n\t\t\t\t\t\t", "tel": "http://ifc.com.hk/mall/shop/clarins/"},
{"title": "M.A.C", "location": "\n\t\t\t\t\t\t\tL2 / Shop 2021", "info": "\n\t\t\t\t\t\t10:00 \u2013 20:30 Mon \u2013 Sun and Public Holidays\n\t\t\t\t\t\t", "tel": "tel:2217 9677"},
{"title": "MaBelle", "location": "\t\t\t\t\t\t", "info": "\n\t\t\t\t\t\t10:00 \u2013 20:30 Mon \u2013 Sat", "tel": "http://ifc.com.hk/mall/shop/claudie-pierlot/"},
{"title": "Madia", "location": "\n\t\t\t\t\t\t\tL1 / Shop 1035", "info": "\n10:00 \u2013 20:00 Sun and Public Holidays\n\t\t\t\t\t\t", "tel": "tel:2234 7111"},
{"title": "Maje", "location": "\t\t\t\t\t\t", "info": "\n\t\t\t\t\t\t10:30 \u2013 20:30 Mon \u2013 Sun and Public Holidays\n\t\t\t\t\t\t", "tel": "http://ifc.com.hk/mall/shop/cle-de-peau-beaute/"},
{"title": "(Malin + Goetz) (Coming soon)", "location": "\n\t\t\t\t\t\t\tL1 / Shop 1009", "info": "\n\t\t\t\t\t\t10:00-21:00 Mon-Thurs", "tel": "tel:3586 3045/3586 3046"},
{"title": "Mannings Plus", "location": "\t\t\t\t\t\t", "info": "\n10:00-20:30 Fri-Sun and Public Holidays\n\t\t\t\t\t\t", "tel": "http://ifc.com.hk/mall/shop/club-monaco/"},
{"title": "Marie France Van Damme", "location": "\n\t\t\t\t\t\t\tL2 / Shop 2082", "info": "\n\t\t\t\t\t\t10:00 \u2013 21:00 Mon-Sun and Public Holidays \n\t\t\t\t\t\t", "tel": "tel:2234 7606"},
{"title": "Massimo Dutti", "location": "\t\t\t\t\t\t", "info": "\n\t\t\t\t\t\t10:00 \u2013 21:00 Mon \u2013 Sun and Public Holidays\n\t\t\t\t\t\t", "tel": "http://ifc.com.hk/mall/shop/coach/"},
{"title": "MAX&Co.", "location": "\n\t\t\t\t\t\t\tL2 / Shop 2001A", "info": "\n\t\t\t\t\t\t10:30 \u2013 20:30 Mon \u2013 Sun and Public Holidays\n\t\t\t\t\t\t", "tel": "tel:3153 4400"},
{"title": "Max Mara", "location": "\t\t\t\t\t\t", "info": "\n\t\t\t\t\t\t10:00 \u2013 21:00 Mon-Sun & Public Holidays\n\t\t\t\t\t\t", "tel": "http://ifc.com.hk/mall/shop/cos/"},
{"title": "MIKIMOTO", "location": "\n\t\t\t\t\t\t\tL2 / Shop 2050 \u2013 53", "info": "\n\t\t\t\t\t\t10:30 \u2013 19:30 Mon \u2013 Sun and Public Holidays\n\t\t\t\t\t\t", "tel": "tel:2641 1773"},
{"title": "MONCLER", "location": "\t\t\t\t\t\t", "info": "\n\t\t\t\t\t\t10:00 \u2013 21:00 Mon \u2013 Sun and Public Holidays\n\t\t\t\t\t\t", "tel": "http://ifc.com.hk/mall/shop/diesel/"},
{"title": "MONICA VINADER", "location": "\n\t\t\t\t\t\t\tL1 / Shop 1078", "info": "\n\t\t\t\t\t\t10:00 \u2013 21:00 Mon \u2013 Sun and Public Holidays\n\t\t\t\t\t\t", "tel": "tel:2870 0543"},
{"title": "Montblanc", "location": "\t\t\t\t\t\t", "info": "\n\t\t\t\t\t\t10:00 \u2013 20:30 Mon \u2013 Sun and Public Holidays\n\t\t\t\t\t\t", "tel": "http://ifc.com.hk/mall/shop/dior-beauty/"},
{"title": "Mr & Mrs Italy", "location": "\n\t\t\t\t\t\t\tL2 / Shop 2032", "info": "\n\t\t\t\t\t\t10:00 \u2013 20:30 Mon \u2013 Sun and Public Holidays\n\t\t\t\t\t\t", "tel": "tel:2521 6799"},
{"title": "my NAIL NAIL", "location": "\t\t\t\t\t\t", "info": "\n\t\t\t\t\t\t10:00 \u2013 22:00 Mon \u2013 Sun and Public Holidays\n\t\t\t\t\t\t", "tel": "http://ifc.com.hk/mall/shop/diptyque/"},
{"title": "Nespresso", "location": "\n\t\t\t\t\t\t\tL3 / Shop 3092B", "info": "\n\t\t\t\t\t\t\t\t\t\t\t\t", "tel": "tel:2506 9168"},
{"title": "OFFICINE PANERAI", "location": "\t\t\t\t\t\t", "info": "\n\t\t\t\t\t\t09:00 \u2013 21:30 Mon \u2013 Sat", "tel": "http://ifc.com.hk/mall/shop/disc-plus/"},
{"title": "OMEGA", "location": "\n\t\t\t\t\t\t\tL2 / Shop 2030", "info": "\n10:00 \u2013 21:30 Sun and Public Holidays\n\t\t\t\t\t\t", "tel": "tel:2234 7070 "},
{"title": "PALACE ifc", "location": "\t\t\t\t\t\t", "info": "\n\t\t\t\t\t\t10:30 \u2013 21:00 Mon \u2013 Sun and Public Holidays\n\t\t\t\t\t\t", "tel": "http://ifc.com.hk/mall/shop/ecco/"},
{"title": "PANDORA", "location": "\n\t\t\t\t\t\t\tL1 / Shop 1040B", "info": "\n\t\t\t\t\t\t10:00 \u2013 22:00 Sun \u2013 Thurs and Public holidays", "tel": "tel:2117 0000"},
{"title": "Penhaligon\u2019s London", "location": "\t\t\t\t\t\t", "info": "\n10:00 \u2013 22:30 Fri \u2013 Sat \n\t\t\t\t\t\t", "tel": "http://ifc.com.hk/mall/shop/elegant-watch-jewellery/"},
{"title": "Perrin Paris", "location": "\n\t\t\t\t\t\t\tL2 / Shop 2023", "info": "\n\t\t\t\t\t\t10:00 \u2013 22:00 Mon \u2013 Sun and Public Holidays\n\t\t\t\t\t\t", "tel": "tel:2319 0868"},
{"title": "Pomellato", "location": "\t\t\t\t\t\t", "info": "\n\t\t\t\t\t\tMon-Sun and Public Holiday : 10am \u2013 8pm\n\t\t\t\t\t\t", "tel": "http://ifc.com.hk/mall/shop/emilio-pucci/"},
{"title": "PRIVATE i SALON", "location": "\n\t\t\t\t\t\t\tL1 / Shop 1086", "info": "\n\t\t\t\t\t\t10:30 \u2013 20:00 Mon \u2013 Sun and Public Holidays\n\t\t\t\t\t\t", "tel": "tel:2368 9230"},
{"title": "Pure Fitness", "location": "\t\t\t\t\t\t", "info": "\n\t\t\t\t\t\t10:30 \u2013 20:00 Mon \u2013 Sun and Public Holidays\n\t\t\t\t\t\t", "tel": "http://ifc.com.hk/mall/shop/enoteca/"},
{"title": "Qeelin", "location": "\n\t\t\t\t\t\t\tL2 / Shop 2085", "info": "\n\t\t\t\t\t\t10:00 \u2013 21:00 Mon \u2013 Sun and Public Holidays\n\t\t\t\t\t\t", "tel": "tel:2295 0828"},
{"title": "RIMOWA(coming soon)", "location": "\t\t\t\t\t\t", "info": "\n\t\t\t\t\t\t10:00 \u2013 20:30 Mon \u2013 Sun and Public Holidays\n\t\t\t\t\t\t", "tel": "http://ifc.com.hk/mall/shop/ermenegildo-zegna/"},
{"title": "Rolex (coming soon)", "location": "\n\t\t\t\t\t\t\tL1 / Shop 1055", "info": "\n\t\t\t\t\t\t10:30 \u2013 20:00 Mon \u2013 Sun and Public Holidays\n\t\t\t\t\t\t", "tel": "tel:3188 9313"},
{"title": "Rue Madame", "location": "\t\t\t\t\t\t", "info": "\n\t\t\t\t\t\t10:00 \u2013 21:00 Mon \u2013 Sun and Public Holidays\n\t\t\t\t\t\t", "tel": "http://ifc.com.hk/mall/shop/estee-lauder/"},
{"title": "Salvatore Ferragamo", "location": "\n\t\t\t\t\t\t\tL1 / Shop 1020", "info": "\n\t\t\t\t\t\t10:00 \u2013 21:00 Mon \u2013 Sun and Public Holidays\n\t\t\t\t\t\t", "tel": "tel:2392 9696"},
{"title": "Samsonite", "location": "\t\t\t\t\t\t", "info": "\n\t\t\t\t\t\t10:00 \u2013 20:00 Mon \u2013 Sun and Public Holidays\n\t\t\t\t\t\t", "tel": "http://ifc.com.hk/mall/shop/etro-coming-soon/"},
{"title": "Sandro", "location": "\n\t\t\t\t\t\t\tL2 / Shop 2027", "info": "\n\t\t\t\t\t\t10:00 \u2013 21:00 Mon \u2013 Sun and Public Holidays\n\t\t\t\t\t\t", "tel": "http://ifc.com.hk/mall/shop/falke-coming-soon/"},
{"title": "Scotch & Soda", "location": "\t\t\t\t\t\t", "info": "\n\t\t\t\t\t\t10:00 \u2013 22:00 Mon \u2013 Fri", "tel": "tel:2617 9128"},
{"title": "seed", "location": "\n\t\t\t\t\t\t\tL1 / Shop 1059C", "info": "\n08:30 \u2013 24:00 Sat", "tel": "http://ifc.com.hk/mall/shop/fedeli/"},
{"title": "Sergio Rossi", "location": "\t\t\t\t\t\t", "info": "\n08:30 \u2013 22:00 Sun and Public Holidays\n\t\t\t\t\t\t", "tel": "tel:2234 7002"},
{"title": "SHISEIDO", "location": "\n\t\t\t\t\t\t\tL2 / Shop 2072 \u2013 73", "info": "\n\t\t\t\t\t\t10:00 \u2013 21:00 Mon \u2013 Sun and Public Holidays\n\t\t\t\t\t\t", "tel": "http://ifc.com.hk/mall/shop/flannel-flowers/"},
{"title": "SK-II", "location": "\t\t\t\t\t\t", "info": "\n\t\t\t\t\t\t10:00 \u2013 21:00 Mon \u2013 Sun\n\t\t\t\t\t\t", "tel": "tel:2525 8818"},
{"title": "SmarTone", "location": "\n\t\t\t\t\t\t\tL2 / Shop 2061", "info": "\n\t\t\t\t\t\t10:30 \u2013 20:00 Mon \u2013 Sun\n\t\t\t\t\t\t", "tel": "http://ifc.com.hk/mall/shop/fred/"},
{"title": "Stuart Weitzman", "location": "\t\t\t\t\t\t", "info": "\n\t\t\t\t\t\t10:30 \u2013 20:00 Mon \u2013 Sun and Public Holidays\n\t\t\t\t\t\t", "tel": "tel:3572 0126"},
{"title": "Sunglass Hut", "location": "\n\t\t\t\t\t\t\tL1 / Shop 1001", "info": "\n\t\t\t\t\t\t10:00 \u2013 21:00 Mon \u2013 Sun and Public Holidays\n\t\t\t\t\t\t", "tel": "http://ifc.com.hk/mall/shop/fresh/"},
{"title": "Swarovski", "location": "\t\t\t\t\t\t", "info": "\n\t\t\t\t\t\t06:00 \u2013 24:00 Mon \u2013 Sat", "tel": "tel:2545 4549"},
{"title": "TAG Heuer", "location": "\n\t\t\t\t\t\t\tL2 / Shop 2087", "info": "\n08:00 \u2013 22:00  Sun and Public Holidays\n\t\t\t\t\t\t", "tel": "http://ifc.com.hk/mall/shop/freywille/"},
{"title": "Tai Pan Row", "location": "\t\t\t\t\t\t", "info": "\n\t\t\t\t\t\t10:30 \u2013 19:30 Mon \u2013 Sun and Public Holidays\n\t\t\t\t\t\t", "tel": "tel:2234 7148"},
{"title": "Theory", "location": "\n\t\t\t\t\t\t\tL2 / Shop 2066", "info": "\n\t\t\t\t\t\t10:00 \u2013 21:00 Mon \u2013 Sun and Public Holidays\n\t\t\t\t\t\t", "tel": "http://ifc.com.hk/mall/shop/furla/"},
{"title": "Tiffany & Co.", "location": "\t\t\t\t\t\t", "info": "\n\t\t\t\t\t\t10:30 \u2013 19:30 Mon \u2013 Sun & Public Holidays\n\t\t\t\t\t\t", "tel": "tel:2295 3988\u2028"},
{"title": "TOM FORD", "location": "\n\t\t\t\t\t\t\tL3 / Shop 3092D", "info": "\n\t\t\t\t\t\t10:30 \u2013 21:00 Mon \u2013 Sun and Public Holidays\n\t\t\t\t\t\t", "tel": "http://ifc.com.hk/mall/shop/geox/"},
{"title": "TORY BURCH", "location": "\t\t\t\t\t\t", "info": "\n\t\t\t\t\t\t10:00 \u2013 20:00 Mon \u2013 Sun and Public Holidays\n\t\t\t\t\t\t", "tel": "tel:2868 3800"},
{"title": "Travelex worldwide money", "location": "\n\t\t\t\t\t\t\tL1 / Shop 1002A", "info": "\n\t\t\t\t\t\t10:00 \u2013 21:00 Mon-Sun and Public Holidays\n\t\t\t\t\t\t", "tel": "http://ifc.com.hk/mall/shop/gerog-jensen/"},
{"title": "TUMI", "location": "\t\t\t\t\t\t", "info": "\n\t\t\t\t\t\t11:00 \u2013 21:00 Mon \u2013 Sun and Public Holidays\n\t\t\t\t\t\t", "tel": "tel:2527 2366"},
{"title": "Vacheron Constantin", "location": "\n\t\t\t\t\t\t\tL2 / Shop 2088", "info": "\n\t\t\t\t\t\t10:00 \u2013 21:00 Mon \u2013 Sun and Public Holidays\n\t\t\t\t\t\t", "tel": "http://ifc.com.hk/mall/shop/giorgio-armani-beauty/"},
{"title": "Valentino", "location": "\t\t\t\t\t\t", "info": "\n\t\t\t\t\t\t10:00 \u2013 21:30 Mon \u2013 Fri; 10:00 \u2013 21:00 Sat, Sun and Public Holidays\n\t\t\t\t\t\t", "tel": "tel:2805 0890"},
{"title": "Valextra", "location": "\n\t\t\t\t\t\t\tL1 / Shop 1003A", "info": "\n\t\t\t\t\t\t10:00-20:00 Mon- Sun and Public Holidays\n\t\t\t\t\t\t", "tel": "http://ifc.com.hk/mall/shop/giuseppe-zanotti-design/"},
{"title": "VICTORIA\u2019S SECRET Beauty and Accessories", "location": "\t\t\t\t\t\t", "info": "\n\t\t\t\t\t\t10:00 \u2013 21:00 Mon \u2013 Sun and Public Holidays\n\t\t\t\t\t\t", "tel": "http://ifc.com.hk/mall/shop/givenchy/"},
{"title": "Victorinox", "location": "\n\t\t\t\t\t\t\tL1 / Shop 1026 \u2013 28", "info": "\n\t\t\t\t\t\t10:00 \u2013 21:00 Mon \u2013 Sun and Public Holidays\n\t\t\t\t\t\t", "tel": "tel:2295 1688"},
{"title": "VILEBREQUIN", "location": "\t\t\t\t\t\t", "info": "\n\t\t\t\t\t\t09:00 \u2013 21:00 Mon \u2013 Sat", "tel": "http://ifc.com.hk/mall/shop/glasstique/"},
{"title": "Watsons b\u00e9b\u00e9", "location": "\n\t\t\t\t\t\t\tL1 / Shop 1009A", "info": "\n10:00 \u2013 21:00 Sun and Public Holidays\n\t\t\t\t\t\t", "tel": "tel:28963275"},
{"title": "Watson\u2019s Wine", "location": "\t\t\t\t\t\t", "info": "\n\t\t\t\t\t\t10:00 \u2013 21:00 Mon-Sun and Public Holidays\n\t\t\t\t\t\t", "tel": "http://ifc.com.hk/mall/shop/golden-goose-deluxe-brand/"},
{"title": "Wellendorff", "location": "\n\t\t\t\t\t\t\tL3 / Shop 3005A", "info": "\n\t\t\t\t\t\t09:30 \u2013 20:30 Mon \u2013 Sun and Public Holidays\n\t\t\t\t\t\t", "tel": "tel:2234 7322"},
{"title": "Whistles", "location": "\t\t\t\t\t\t", "info": "\n\t\t\t\t\t\t10:00 \u2013 21:00 Mon \u2013 Sun and Public Holidays\n\t\t\t\t\t\t", "tel": "http://ifc.com.hk/mall/shop/gucci/"},
{"title": "Wise-Kids Toys", "location": "\n\t\t\t\t\t\t\tL1 / Shop 1053B", "info": "\n\t\t\t\t\t\t10:00 \u2013 20:00 Mon \u2013 Sun and Public Holidays\n\t\t\t\t\t\t", "tel": "tel:2897 1388"},
{"title": "WOLFORD", "location": "\t\t\t\t\t\t", "info": "\n\t\t\t\t\t\t10:00 \u2013 20:00 Mon \u2013 Sat", "tel": "http://ifc.com.hk/mall/shop/haglofs/"},
{"title": "YSL Beaute", "location": "\n\t\t\t\t\t\t\tL2 / Shop 2083", "info": "\n10:00 \u2013 19:00 Sun and Public Holiday\n\t\t\t\t\t\t", "tel": "tel:2116 3708"},
{"title": "Zara", "location": "\t\t\t\t\t\t", "info": "\n\t\t\t\t\t\t10:00 \u2013 21:00 Mon \u2013 Thurs and Public Holidays", "tel": "http://ifc.com.hk/mall/shop/hublot/"},
{"title": "45R", "location": "\n\t\t\t\t\t\t\tL1 / Shop 1059B", "info": "\n10:00 \u2013 21:30 Fri and Sat\n\t\t\t\t\t\t", "tel": "tel:3188 1171"},
{"title": "7 for All Mankind", "location": "\t\t\t\t\t\t", "info": "\n\t\t\t\t\t\t10:30 \u2013 20:00 Mon \u2013 Sat", "tel": "http://ifc.com.hk/mall/shop/hugo-boss/"},
{"title": "Accessorize", "location": "\n\t\t\t\t\t\t\tL1 / Shop 1025B", "info": "\n11:00 \u2013 20:00 Sun and Public Holidays\n\t\t\t\t\t\t", "tel": "tel:2668 5456"},
{"title": "Acne Studios", "location": "\t\t\t\t\t\t", "info": "\n\t\t\t\t\t\t10:30 \u2013 19:30 Mon \u2013 Thu, Sun and Public holidays", "tel": "http://ifc.com.hk/mall/shop/iwc-schaffhausen/"},
{"title": "Aesop", "location": "\n\t\t\t\t\t\t\tL3 / Shop 3021", "info": "\n10:30 \u2013 20:00 Fri \u2013 Sat\n\t\t\t\t\t\t", "tel": "tel:2628 5611"},
{"title": "agn\u00e8s b. LA LOGGIA bis", "location": "\t\t\t\t\t\t", "info": "\n\t\t\t\t\t\t10:00-20:00 Sun \u2013Thu", "tel": "http://ifc.com.hk/mall/shop/j-crew/"},
{"title": "AIGLE", "location": "\n\t\t\t\t\t\t\tL2 / Shop 2062", "info": "\n10:00-20:30 Fri \u2013 Sat and Eve of Public Holidays\n\t\t\t\t\t\t", "tel": "tel:2643 2822"},
{"title": "Alexandre Zouari Paris", "location": "\t\t\t\t\t\t", "info": "\n\t\t\t\t\t\t10:00 \u2013 21:00 Mon \u2013 Sun and public holidays\n\t\t\t\t\t\t", "tel": "http://ifc.com.hk/mall/shop/jaeger-lecoultre/"},
{"title": "Alfred Dunhill", "location": "\n\t\t\t\t\t\t\tL1 / Shop 1077", "info": "\n\t\t\t\t\t\t10:00 \u2013 21:00 Mon \u2013 Sun and Public Holidays\n\t\t\t\t\t\t", "tel": "tel:2117 0721"},
{"title": "alice + olivia", "location": "\t\t\t\t\t\t", "info": "\n\t\t\t\t\t\t10:30 \u2013 20:00 Mon \u2013 Sun and Public Holidays\n\t\t\t\t\t\t", "tel": "http://ifc.com.hk/mall/shop/john-masters-organicscoming-soon/"},
{"title": "American Vintage", "location": "\n\t\t\t\t\t\t\tL2 / Shop 2025", "info": "\n\t\t\t\t\t\t10:30 \u2013 20:00 Mon \u2013 Sun and Public Holidays\n\t\t\t\t\t\t", "tel": "tel:3188 1928"},
{"title": "ANTEPRIMA", "location": "\t\t\t\t\t\t", "info": "\n\t\t\t\t\t\t10:00 \u2013 20:00 Mon \u2013 Sun and public holidays\n\t\t\t\t\t\t", "tel": "http://ifc.com.hk/mall/shop/kate-spade-new-york/"},
{"title": "APM Monaco", "location": "\n\t\t\t\t\t\t\tL3 / Shop 3031 \u2013 70", "info": "\n\t\t\t\t\t\t10:00 \u2013 21:00 Mon \u2013 Fri to Sun and Public Holidays\n\t\t\t\t\t\t", "tel": "tel:2117 2277"},
{"title": "Apple Store", "location": "\t\t\t\t\t\t", "info": "\n\t\t\t\t\t\t10:00 \u2013 20:00 Sun \u2013 Thu\u2028", "tel": "http://ifc.com.hk/mall/shop/kenzo/"},
{"title": "ARC'TERYX", "location": "\n\t\t\t\t\t\t\tL4 / Shop 4008", "info": "\n10:00 \u2013 21:00 Fri \u2013 Sat and Public Holidays\n\t\t\t\t\t\t", "tel": "tel:2111 4032"},
{"title": "ART\u0112 Madrid", "location": "\t\t\t\t\t\t", "info": "\n\t\t\t\t\t\t10:00 \u2013 21:00 Mon \u2013 Sun and Public Holidays\u00a0\n\t\t\t\t\t\t", "tel": "http://ifc.com.hk/mall/shop/kiehls/"},
{"title": "Ascot Chang", "location": "\n\t\t\t\t\t\t\tL2 / Shop 2043", "info": "\n\t\t\t\t\t\t09:00 am \u2013 09:30 pm (Mon \u2013 Sat)", "tel": "tel:2833 5363"},
{"title": "Atelier Cologne", "location": "\t\t\t\t\t\t", "info": "\n10:00 am \u2013 09:30 pm (Sun and Public Holidays)\n\t\t\t\t\t\t", "tel": "http://ifc.com.hk/mall/shop/kiko/"},
{"title": "ATSURO TAYAMA", "location": "\n\t\t\t\t\t\t\tL2 / Shop 2084", "info": "\n\t\t\t\t\t\t11:00 \u2013 20:30 Mon \u2013 Sat", "tel": "tel:2295 1182"},
{"title": "Audemars Piguet", "location": "\t\t\t\t\t\t", "info": "\n11:00 \u2013 20:00 Sun and Public Holidays\n\t\t\t\t\t\t", "tel": "http://ifc.com.hk/mall/shop/kinji/"},
{"title": "AV Life - Prestige", "location": "\n\t\t\t\t\t\t\tL3 / Shop 3007", "info": "\n\t\t\t\t\t\t10:30 \u2013 20:00 Mon \u2013 Sun and Public Holidays \n\t\t\t\t\t\t", "tel": "tel:2234 7882"},
{"title": "BabyNes\u00ae Nutrition System Boutique", "location": "\t\t\t\t\t\t", "info": "\n\t\t\t\t\t\t10:00 \u2013 22:00 Mon- Sun and Public Holidays\n\t\t\t\t\t\t", "tel": "http://ifc.com.hk/mall/shop/kiton/"},
{"title": "Bang & Olufsen", "location": "\n\t\t\t\t\t\t\tL2 / Shop 2026", "info": "\n\t\t\t\t\t\t10:30 \u2013 20:30 Mon-Sun and Public Holidays\n\t\t\t\t\t\t", "tel": "tel:2524 6136"},
{"title": "ba&sh", "location": "\t\t\t\t\t\t", "info": "\n\t\t\t\t\t\t10:00 \u2013 22:00 Mon \u2013 Sun \n\t\t\t\t\t\t", "tel": "http://ifc.com.hk/mall/shop/la-prairie/"},
{"title": "BEYORG\u00ae | Beyond Organic", "location": "\n\t\t\t\t\t\t\tL1 / Shop 1016", "info": "\n\t\t\t\t\t\t10:00-2100 Mon-Sun and Public holidays\n\t\t\t\t\t\t", "tel": "tel:2234 7333"},
{"title": "Bobbi Brown", "location": "\t\t\t\t\t\t", "info": "\n\t\t\t\t\t\t10:00 \u2013 22:00  Sun \u2013 Thurs", "tel": "http://ifc.com.hk/mall/shop/lalique/"},
{"title": "Boggi Milano", "location": "\n\t\t\t\t\t\t\tL2 / Shop 2015", "info": "\n10:00 \u2013 22:30  Fri and Sat\n\t\t\t\t\t\t", "tel": "tel:2118 3388"},
{"title": "Bookazine", "location": "\t\t\t\t\t\t", "info": "\n\t\t\t\t\t\t11:00 \u2013 21:00 Mon \u2013 Sun and public holidays\n\t\t\t\t\t\t", "tel": "http://ifc.com.hk/mall/shop/lane-crawford/"},
{"title": "BOSE", "location": "\n\t\t\t\t\t\t\tL2 / Shop 2004A", "info": "\n\t\t\t\t\t\t10:00 \u2013 21:00 Mon \u2013 Sun and Public Holidays\n\t\t\t\t\t\t", "tel": "tel:2118 3388"},
{"title": "Bottega Veneta", "location": "\t\t\t\t\t\t", "info": "\n\t\t\t\t\t\t10:00 \u2013 22:00 Mon- Sun and Public Holiday\n\t\t\t\t\t\t", "tel": "http://ifc.com.hk/mall/shop/lane-crawford-home/"},
{"title": "Brooks Brothers", "location": "\n\t\t\t\t\t\t\tL1 / Shop 1019A", "info": "\n\t\t\t\t\t\t10:00  \u2013 20:00 Mon \u2013 Sun and Public Holidays\n\t\t\t\t\t\t", "tel": "tel:2234 7323"},
{"title": "Brunello Cucinelli", "location": "\t\t\t\t\t\t", "info": "\n\t\t\t\t\t\t10:00 \u201321:00 Mon \u2013 Sun and Public Holidays\n\t\t\t\t\t\t", "tel": "http://ifc.com.hk/mall/shop/lanvin-ladies/"},
{"title": "BVLGARI", "location": "\n\t\t\t\t\t\t\tL2 / Shop 2001B", "info": "\n\t\t\t\t\t\t10:00 \u2013 21:00 Mon-Sun and Public Holidays", "tel": "tel:2234 7341 "},
{"title": "Calvin Klein Underwear", "location": "\t\t\t\t\t\t", "info": "\nCafe: 9:30 \u2013 21:30 Mon-Sun and Public Holidays\n\t\t\t\t\t\t", "tel": "http://ifc.com.hk/mall/shop/laurel/"},
{"title": "CARAT* London", "location": "\n\t\t\t\t\t\t\tL1 / Shop 1090", "info": "\n\t\t\t\t\t\t10:30-21:00 Mon-Sun and Public Holidays\n\t\t\t\t\t\t", "tel": "tel:2759 8680"},
{"title": "C\u00c9LINE", "location": "\t\t\t\t\t\t", "info": "\n\t\t\t\t\t\t10:00 \u2013 21:00 Mon \u2013 Sun and Public Holidays\n\t\t\t\t\t\t", "tel": "http://ifc.com.hk/mall/shop/le-labo/"},
{"title": "CHANEL BEAUT\u00c9 (Coming soon)", "location": "\n\t\t\t\t\t\t\tL2 / Shop 2060", "info": "\n\t\t\t\t\t\t\t\t\t\t\t\t", "tel": "tel:2887 8000"},
{"title": "CHANEL BEAUT\u00c9 Pop-up", "location": "\t\t\t\t\t\t", "info": "\n\t\t\t\t\t\t10:00 \u2013 21:00 Mon \u2013 Sun and Public Holidays\n\t\t\t\t\t\t", "tel": "http://ifc.com.hk/mall/shop/leica/"},
{"title": "Chateau Bardens", "location": "\n\t\t\t\t\t\t\tL1 / Shop LA2", "info": "\n\t\t\t\t\t\t10:30 \u2013 21:00 Mon-Sun and Public Holidays\n\t\t\t\t\t\t", "tel": "tel:2295 3619"},
{"title": "CHAUMET", "location": "\t\t\t\t\t\t", "info": "\n\t\t\t\t\t\t10:30 \u2013 20:30 Mon \u2013 Sun and Public Holidays \n\t\t\t\t\t\t", "tel": "http://ifc.com.hk/mall/shop/lenscrafters/"},
{"title": "Chopard", "location": "\n\t\t\t\t\t\t\tL2 / Shop 2046 \u2013 47", "info": "\n\t\t\t\t\t\t10:00 \u2013 21:00 Mon- Sun and Public Holidays\n\t\t\t\t\t\t", "tel": "tel:2301 3398"},
{"title": "Chow Sang Sang", "location": "\t\t\t\t\t\t", "info": "\n\t\t\t\t\t\t10:00 \u2013 21:00 Mon \u2013 Sun and Public Holidays\n\t\t\t\t\t\t", "tel": "http://ifc.com.hk/mall/shop/life-digital/"},
{"title": "city\u2019super", "location": "\n\t\t\t\t\t\t\tL1 / Shop 1098B", "info": "\n\t\t\t\t\t\t11:00 \u2013 21:00 Mon \u2013 Sun & Public Holidays\n\t\t\t\t\t\t", "tel": "tel:2878 8038"},
{"title": "Clarins", "location": "\t\t\t\t\t\t", "info": "\n\t\t\t\t\t\t10:00 \u2013 21:00 Mon- Sun and Public Holidays\n\t\t\t\t\t\t", "tel": "http://ifc.com.hk/mall/shop/linda-farrow/"},
{"title": "Claudie Pierlot", "location": "\n\t\t\t\t\t\t\tL1 / Shop 1088A", "info": "\n\t\t\t\t\t\t10:00 \u2013 20:00 Mon \u2013 Sun and Public Holidays\n\t\t\t\t\t\t", "tel": "http://ifc.com.hk/mall/shop/links-of-london/"},
{"title": "Cl\u00e9 de Peau Beaut\u00e9", "location": "\t\t\t\t\t\t", "info": "\n\t\t\t\t\t\t10:00 \u2013 21:00 Mon \u2013 Sun and public holidays\n\t\t\t\t\t\t", "tel": "tel:2755 5008"},
{"title": "Club Monaco", "location": "\n\t\t\t\t\t\t\tL1 / Shop 1013", "info": "\n\t\t\t\t\t\t11:00 \u2013 20:30 Mon \u2013 Sun and Public Holidays\n\t\t\t\t\t\t", "tel": "http://ifc.com.hk/mall/shop/liquid-gold/"},
{"title": "COACH", "location": "\t\t\t\t\t\t", "info": "\n\t\t\t\t\t\t10:00 \u2013 20:00 Mon \u2013 Sun\n\t\t\t\t\t\t", "tel": "tel:2234 7198"},
{"title": "COS", "location": "\n\t\t\t\t\t\t\tL1 / Shop 1018C", "info": "\n\t\t\t\t\t\t10:00 \u2013 20:30 Mon \u2013  Sat", "tel": "http://ifc.com.hk/mall/shop/loccitane/"},
{"title": "DIESEL", "location": "\t\t\t\t\t\t", "info": "\n10:30 \u2013 20:30 Sun and Public Holidays\n\t\t\t\t\t\t", "tel": "tel:2970 4618"},
{"title": "Dior Beauty\u00a0", "location": "\n\t\t\t\t\t\t\tL1 / Shop 1052B", "info": "\n\t\t\t\t\t\t10:00 \u2013 20:30 Mon-Sun and Public Holidays\n\t\t\t\t\t\t", "tel": "http://ifc.com.hk/mall/shop/loewe/"},
{"title": "diptyque", "location": "\t\t\t\t\t\t", "info": "\n\t\t\t\t\t\t10:00 \u2013 20:00 Mon \u2013 Sun and Public Holidays\n\t\t\t\t\t\t", "tel": "tel:2736 7328"},
{"title": "Disc Plus", "location": "\n\t\t\t\t\t\t\t\t\t\t\t\t\t", "info": "\n\t\t\t\t\t\t10:00 \u2013 21:00 Mon \u2013 Sun and Public Holidays\n\t\t\t\t\t\t", "tel": "http://ifc.com.hk/mall/shop/longchamp-pop-up-store/"},
{"title": "ECCO", "location": "\n\t\t\t\t\t\t\tL2 / Shop 2004", "info": "\n\t\t\t\t\t\t10:00 \u2013 21:00 Mon \u2013 Sun and Public Holidays\u2028\n\t\t\t\t\t\t", "tel": "tel:2234 7398"},
{"title": "Elegant Watch & Jewellery", "location": "\t\t\t\t\t\t", "info": "\n\t\t\t\t\t\t10:00 \u2013 21:00 Mon \u2013 Sun and Public Holidays\n\t\t\t\t\t\t", "tel": "http://ifc.com.hk/mall/shop/loro-piana/"},
{"title": "Emilio Pucci", "location": "\n\t\t\t\t\t\t\tL3 / Shop 3088", "info": "\n\t\t\t\t\t\tMon to Sun and Public Holidays: 10:00 \u2013 20:30\n\t\t\t\t\t\t", "tel": "tel:2997 7170"},
{"title": "Enoteca", "location": "\t\t\t\t\t\t", "info": "\n\t\t\t\t\t\t10:00 \u2013 21:00 Mon \u2013 Sun and Public Holidays\n\t\t\t\t\t\t", "tel": "http://ifc.com.hk/mall/shop/lululemon-athletica/"},
{"title": "Ermenegildo Zegna", "location": "\n\t\t\t\t\t\t\tL1 / Shop 1092", "info": "\n\t\t\t\t\t\t10:00 \u2013 21:00 Mon \u2013 Sun and Public Holidays\n\t\t\t\t\t\t", "tel": "tel:2967 6981"},
{"title": "Est\u00e9e Lauder", "location": "\t\t\t\t\t\t", "info": "\n\t\t\t\t\t\t10:30 \u2013 20:00 Mon \u2013 Sat", "tel": "http://ifc.com.hk/mall/shop/m-a-c/"},
{"title": "ETRO", "location": "\n\t\t\t\t\t\t\tL1 / Shop 1053A", "info": "\n11:00 \u2013 20:00 Sun and Public Holidays\n\t\t\t\t\t\t", "tel": "tel:2501 5821"},
{"title": "FALKE (Coming soon)", "location": "\t\t\t\t\t\t", "info": "\n\t\t\t\t\t\t10:00 \u2013 21:00 Mon \u2013 Sun and Public Holidays\n\t\t\t\t\t\t", "tel": "http://ifc.com.hk/mall/shop/mabelle/"},
{"title": "Fedeli", "location": "\n\t\t\t\t\t\t\tL2 / Shop 2077 \u2013 79", "info": "\n\t\t\t\t\t\t10:30 \u2013 21:00 Mon \u2013 Sun and Public Holidays\n\t\t\t\t\t\t", "tel": "tel:2295 3028"},
{"title": "flannel flowers", "location": "\t\t\t\t\t\t", "info": "\n\t\t\t\t\t\t10:30 \u2013 19:30 Mon \u2013 Sun and Public Holidays\n\t\t\t\t\t\t", "tel": "http://ifc.com.hk/mall/shop/madia-1018c/"},
{"title": "FRED", "location": "\n\t\t\t\t\t\t\tL2 / Shop 2035", "info": "\n\t\t\t\t\t\t10:00 \u2013 21:00 Mon \u2013 Sun and Public holidays\n\t\t\t\t\t\t", "tel": "tel:2234 7396"},
{"title": "fresh (Coming soon)", "location": "\t\t\t\t\t\t", "info": "\n\t\t\t\t\t\t10:00 \u2013 21:00 Mon \u2013Sun and Public Holidays\n\t\t\t\t\t\t", "tel": "http://ifc.com.hk/mall/shop/maje/"},
{"title": "FREYWILLE", "location": "\n\t\t\t\t\t\t\tL2 / Shop 2067 \u2013 69", "info": "\n\t\t\t\t\t\t10:30 \u2013 20:00 Mon \u2013 Sun and Public Holidays\n\t\t\t\t\t\t", "tel": "http://ifc.com.hk/mall/shop/malin-goetz-coming-soon/"},
{"title": "FURLA", "location": "\t\t\t\t\t\t", "info": "\n\t\t\t\t\t\t10:00 \u2013 21:00 Mon \u2013 Fri, Sun and Public Holidays", "tel": "tel:2523 9672"},
{"title": "GEOX", "location": "\n\t\t\t\t\t\t\tL1 / Shop 1025C", "info": "\n10:00 \u2013 20:00  Sat\n\t\t\t\t\t\t", "tel": "http://ifc.com.hk/mall/shop/mannings-plus/"},
{"title": "Georg Jensen", "location": "\t\t\t\t\t\t", "info": "\n\t\t\t\t\t\t10:00 \u2013 21:00 Mon \u2013 Fri, Sun and Public Holidays", "tel": "tel:2882 9088"},
{"title": "Giorgio Armani Beauty", "location": "\n\t\t\t\t\t\t\tL1 / Shop 1005B&C", "info": "\n10:00 \u2013 20:00  Sat\n\t\t\t\t\t\t", "tel": "http://ifc.com.hk/mall/shop/marie-france-van-damme/"},
{"title": "Giuseppe Zanotti", "location": "\t\t\t\t\t\t", "info": "\n\t\t\t\t\t\t10:30 \u2013 21:00 Mon \u2013 Sun & Public Holidays\n\t\t\t\t\t\t", "tel": "tel:2805 0588"},
{"title": "Givenchy", "location": "\n\t\t\t\t\t\t\tL2 / Shop 2036", "info": "\n\t\t\t\t\t\t10:00 \u2013 19:30 Mon \u2013 Saturday", "tel": "http://ifc.com.hk/mall/shop/massimo-dutti/"},
{"title": "Glasstique", "location": "\t\t\t\t\t\t", "info": "\n10:30 \u2013 19:00 Sunday and Public Holidays\n\t\t\t\t\t\t", "tel": "tel:2722 9616"},
{"title": "Golden Goose Deluxe Brand\u00ae", "location": "\n\t\t\t\t\t\t\tL3 / Shop 3028", "info": "\n\t\t\t\t\t\t10:30 \u2013 19:30 Mon \u2013 Sun and Public Holidays\n\t\t\t\t\t\t", "tel": "http://ifc.com.hk/mall/shop/maxco/"},
{"title": "GUCCI (coming soon)", "location": "\t\t\t\t\t\t", "info": "\n\t\t\t\t\t\t10:30 \u2013 21:00 Mon \u2013 Sun and Public Holidays\n\t\t\t\t\t\t", "tel": "tel:2722 9606"},
{"title": "Haglofs", "location": "\n\t\t\t\t\t\t\tL1 / Shop 1058A", "info": "\n\t\t\t\t\t\t10:00 \u2013 22:00 Mon \u2013 Sun and Public Holidays\n\t\t\t\t\t\t", "tel": "http://ifc.com.hk/mall/shop/maxmara/"},
{"title": "HUBLOT", "location": "\t\t\t\t\t\t", "info": "\n\t\t\t\t\t\t10:00 \u2013 21:00 Mon \u2013 Thu", "tel": "tel:2234 7189"},
{"title": "HUGO BOSS", "location": "\n\t\t\t\t\t\t\tL1 / Shop 1003B", "info": "\n10:00 \u2013 21:30 Fri \u2013 Sun and Public Holidays\n\t\t\t\t\t\t", "tel": "http://ifc.com.hk/mall/shop/mikimoto/"},
{"title": "IWC Schaffhausen", "location": "\t\t\t\t\t\t", "info": "\n\t\t\t\t\t\t10:00 \u2013 21:00 Mon \u2013 Sun and Public Holidays\n\t\t\t\t\t\t", "tel": "tel:2524 7779"},
{"title": "J.CREW", "location": "\n\t\t\t\t\t\t\tL1 / Shop 1005A", "info": "\n\t\t\t\t\t\t10:00 \u2013 21:00 Monday \u2013 Sunday and Public Holidays\n\t\t\t\t\t\t", "tel": "http://ifc.com.hk/mall/shop/moncler/"},
{"title": "Jaeger-LeCoultre", "location": "\t\t\t\t\t\t", "info": "\n\t\t\t\t\t\t10:00 \u2013 21:00 Mon \u2013 Sun and Public Holidays\n\t\t\t\t\t\t", "tel": "tel:3568 6628"},
{"title": "John Masters Organics", "location": "\n\t\t\t\t\t\t\tL1 / Shop 1058B", "info": "\n\t\t\t\t\t\t10:30 \u2013 21:00 Mon \u2013 Sun and Public Holidays \n\t\t\t\t\t\t", "tel": "http://ifc.com.hk/mall/shop/monica-vinader/"},
{"title": "kate spade new york", "location": "\t\t\t\t\t\t", "info": "\n\t\t\t\t\t\t10:00 \u2013 22:00 Mon \u2013 Sun and Public Holidays\n\t\t\t\t\t\t", "tel": "tel:2234 7225 "},
{"title": "KENZO", "location": "\n\t\t\t\t\t\t\tL1 / Shop 1006-07", "info": "\n\t\t\t\t\t\t10:00 \u2013 21:00 Mon \u2013 Thur, Sun and Public Holidays", "tel": "http://ifc.com.hk/mall/shop/montblanc/"},
{"title": "Kiehl\u2019s", "location": "\t\t\t\t\t\t", "info": "\n10:00 \u2013 21:30 Fri \u2013 Sat\n\t\t\t\t\t\t", "tel": "tel:2638 5062"},
{"title": "KIKO MILANO", "location": "\n\t\t\t\t\t\t\tL3 / Shop 3025A", "info": "\n\t\t\t\t\t\t10:00 \u2013 21:00 Mon \u2013 Sun and Public Holidays\n\t\t\t\t\t\t", "tel": "http://ifc.com.hk/mall/shop/mr-mrs-italy/"},
{"title": "KINJI", "location": "\t\t\t\t\t\t", "info": "\n\t\t\t\t\t\t10:00 \u2013 21:00 Mon \u2013 Sun and Public Holidays\n\t\t\t\t\t\t", "tel": "tel:23669322"},
{"title": "Kiton", "location": "\n\t\t\t\t\t\t\tL2 / Shop 2034", "info": "\n\t\t\t\t\t\t10:00 \u2013 21:30 Mon \u2013 Sun and public holidays\n\t\t\t\t\t\t", "tel": "http://ifc.com.hk/mall/shop/my-nail-nail/"},
{"title": "la prairie", "location": "\t\t\t\t\t\t", "info": "\n\t\t\t\t\t\t10:00 \u2013 21:00 Mon \u2013 Sun and Public Holidays\n\t\t\t\t\t\t", "tel": "tel:800 968 821"},
{"title": "LALIQUE", "location": "\n\t\t\t\t\t\t\tL2 / Shop 2039", "info": "\n\t\t\t\t\t\t10:00 \u2013 20:00 Mon \u2013 Sun and Public Holidays\n\t\t\t\t\t\t", "tel": "http://ifc.com.hk/mall/shop/nespresso/"},
{"title": "Lane Crawford", "location": "\t\t\t\t\t\t", "info": "\n\t\t\t\t\t\t10:00 \u2013 20:00 Mon \u2013 Sun and Public Holidays\n\t\t\t\t\t\t", "tel": "tel:8200 3033 "},
{"title": "Lane Crawford Home", "location": "\n\t\t\t\t\t\t\tL3 / Shop 3029 \u2013 30", "info": "\n\t\t\t\t\t\t10:30-21:00 Mon-Sun and Public Holidays\n\t\t\t\t\t\t", "tel": "http://ifc.com.hk/mall/shop/officine-panerai/"},
{"title": "LANVIN-Ladies", "location": "\t\t\t\t\t\t", "info": "\n\t\t\t\t\t\t10:00 \u2013 20:00 Mon \u2013 Sun and Public Holidays\n\t\t\t\t\t\t", "tel": "tel:2518 9880"},
{"title": "Laur\u00e8l", "location": "\n\t\t\t\t\t\t\tL3 / Shop 3082B", "info": "\n\t\t\t\t\t\t10:00 \u2013 21:00 Mon \u2013 Sun and Public Holidays\n\t\t\t\t\t\t", "tel": "http://ifc.com.hk/mall/shop/omega/"},
{"title": "Le Labo", "location": "\t\t\t\t\t\t", "info": "\n\t\t\t\t\t\t10:00-20:00 Mon-Sun & Public Holidays\n\t\t\t\t\t\t", "tel": "tel:2388 6268"},
{"title": "LEICA", "location": "\n\t\t\t\t\t\t\tL2 / Shop 2059", "info": "\n\t\t\t\t\t\t\t\t\t\t\t\t", "tel": "http://ifc.com.hk/mall/shop/palace-ifc/"},
{"title": "LensCrafters", "location": "\t\t\t\t\t\t", "info": "\n\t\t\t\t\t\t10:00 \u2013 20:00 Mon \u2013 Sun and Public Holiday\n\t\t\t\t\t\t", "tel": "tel:2321 9831"},
{"title": "Life Digital-Gadgets", "location": "\n\t\t\t\t\t\t\tL3 / Shop 3027", "info": "\n\t\t\t\t\t\t9:00 \u2013 21:00 Mon \u2013 Sun and Public Holidays\n\t\t\t\t\t\t", "tel": "http://ifc.com.hk/mall/shop/pandora/"},
{"title": "Linda Farrow", "location": "\t\t\t\t\t\t", "info": "\n\t\t\t\t\t\t10:00 \u2013 20:00 Mon-Sun and Public Holidays\n\t\t\t\t\t\t", "tel": "tel:2359 3001"},
{"title": "Links of London", "location": "\n\t\t\t\t\t\t\tL2 / Shop 2042", "info": "\n\t\t\t\t\t\t9:30 \u2013 21:00 Mon \u2013 Sun and Public Holidays\n\t\t\t\t\t\t", "tel": "http://ifc.com.hk/mall/shop/penhaligons-london/"},
{"title": "LIQUID GOLD", "location": "\t\t\t\t\t\t", "info": "\n\t\t\t\t\t\t10:00 \u2013 22:00 Mon-Sun & Public Holidays\n\t\t\t\t\t\t", "tel": "tel:2772 1893"},
{"title": "L\u2019OCCITANE", "location": "\n\t\t\t\t\t\t\tL3 / Shop 3082A", "info": "\n\t\t\t\t\t\t10:00 \u2013 21:30 Mon \u2013 Sun and Public Holidays\n\t\t\t\t\t\t", "tel": "http://ifc.com.hk/mall/shop/perrin-paris/"},
{"title": "Loewe", "location": "\t\t\t\t\t\t", "info": "\n\t\t\t\t\t\t10:00 \u2013 20:30 Mon \u2013 Sun and Public Holidays\n\t\t\t\t\t\t", "tel": "tel:2234 7283"},
{"title": "Longchamp Pop-up Store", "location": "\n\t\t\t\t\t\t\tL2 / Shop 2057", "info": "\n\t\t\t\t\t\t10:30 \u2013 20:00 Mon \u2013 Sun and Public Holidays\n\t\t\t\t\t\t", "tel": "http://ifc.com.hk/mall/shop/pomellato/"},
{"title": "LORO PIANA", "location": "\t\t\t\t\t\t", "info": "\n\t\t\t\t\t\t10:00 \u2013 21:00 Mon \u2013 Sun and Public Holidays\n\t\t\t\t\t\t", "tel": "tel:2526 4488"},
{"title": "lululemon athletica", "location": "\n\t\t\t\t\t\t\tL2 / Shop 2013", "info": "\n\t\t\t\t\t\t10:00-20:00 Mon-Sun and Public Holidays\n\t\t\t\t\t\t", "tel": "http://ifc.com.hk/mall/shop/private-i-salon/"},
{"title": "M.A.C", "location": "\t\t\t\t\t\t", "info": "\n\t\t\t\t\t\t10:30 \u2013 20:00 Sun \u2013 Thu and Public Holidays", "tel": "tel:8129 8000"},
{"title": "MaBelle", "location": "\n\t\t\t\t\t\t\tL3 / Shop 3078A", "info": "\n10:30 \u2013 20:30 Fri \u2013 Sat\n\t\t\t\t\t\t", "tel": "http://ifc.com.hk/mall/shop/pure-fitness/"},
{"title": "Madia", "location": "\t\t\t\t\t\t", "info": "\n\t\t\t\t\t\t10:00 \u2013 20:30 Mon \u2013 Sun and Public Holidays\n\t\t\t\t\t\t", "tel": "tel:2389 8863"},
{"title": "Maje", "location": "\n\t\t\t\t\t\t\tL3 / Shop 3091", "info": "\n\t\t\t\t\t\t10:00 \u2013 20:00 Mon \u2013 Sun and Public Holidays \n\t\t\t\t\t\t", "tel": "http://ifc.com.hk/mall/shop/qeelin/"},
{"title": "(Malin + Goetz) (Coming soon)", "location": "\t\t\t\t\t\t", "info": "\n\t\t\t\t\t\t10:30 \u2013 20:00 Mon \u2013 Sun and Public Holidays\n\t\t\t\t\t\t", "tel": "tel:2118 2288"},
{"title": "Mannings Plus", "location": "\n\t\t\t\t\t\t\tL3 / Shop 3022B", "info": "\n\t\t\t\t\t\t11:00-21:00 Mon \u2013 Sun and Public Holidays\n\t\t\t\t\t\t", "tel": "http://ifc.com.hk/mall/shop/rimowa/"},
{"title": "Marie France Van Damme", "location": "\t\t\t\t\t\t", "info": "\n\t\t\t\t\t\t10:00-20:00 Mon-Sun and Public Holidays\n\t\t\t\t\t\t", "tel": "tel:2234 7368"},
{"title": "Massimo Dutti", "location": "\n\t\t\t\t\t\t\tL2 / Shop LA4", "info": "\n\t\t\t\t\t\t10:00 \u2013 21:00 Mon \u2013 Sun and Public Holidays\n\t\t\t\t\t\t", "tel": "http://ifc.com.hk/mall/shop/rolex/"},
{"title": "MAX&Co.", "location": "\t\t\t\t\t\t", "info": "\n\t\t\t\t\t\t9:30 \u2013 20:15 Mon \u2013 Sun and Public Holidays\n\t\t\t\t\t\t", "tel": "tel:2234 7880"},
{"title": "Max Mara", "location": "\n\t\t\t\t\t\t\tL1 / Shop 1087", "info": "\n\t\t\t\t\t\t10:00 \u2013 21:00 Mon \u2013 Sun and Public Holidays\n\t\t\t\t\t\t", "tel": "http://ifc.com.hk/mall/shop/rue-madame/"},
{"title": "MIKIMOTO", "location": "\t\t\t\t\t\t", "info": "\n\t\t\t\t\t\t10:00 \u2013 20:00 Mon \u2013 Sun and Public Holidays\n\t\t\t\t\t\t", "tel": "tel:2234 7388 "},
{"title": "MONCLER", "location": "\n\t\t\t\t\t\t\tL1 / Shop 1091A", "info": "\n\t\t\t\t\t\t10:00-21:00 Mon \u2013 Sun and Public holidays\n\t\t\t\t\t\t", "tel": "http://ifc.com.hk/mall/shop/salvatore-ferragamo-2/"},
{"title": "MONICA VINADER", "location": "\t\t\t\t\t\t", "info": "\n\t\t\t\t\t\t10:30 \u2013 21:00 Mon \u2013 Sun and Public Holidays\n\t\t\t\t\t\t", "tel": "tel:2295 3622"},
{"title": "Montblanc", "location": "\n\t\t\t\t\t\t\tL1 / Shop 1021", "info": "\n\t\t\t\t\t\t10:30-20:00 Mon-Sun and Public holiday\n\t\t\t\t\t\t", "tel": "http://ifc.com.hk/mall/shop/samsonite/"},
{"title": "Mr & Mrs Italy", "location": "\t\t\t\t\t\t", "info": "\n\t\t\t\t\t\t10:00 \u2013 21:00 Mon \u2013 Sun and Public Holidays\n\t\t\t\t\t\t", "tel": "tel:2234 7851"},
{"title": "my NAIL NAIL", "location": "\n\t\t\t\t\t\t\tL3 / Shop 3076", "info": "\n\t\t\t\t\t\t10:00 \u2013 22:00 Mon-Sun and Public Holidays\n\t\t\t\t\t\t", "tel": "http://ifc.com.hk/mall/shop/sandro/"},
{"title": "Nespresso", "location": "\t\t\t\t\t\t", "info": "\n\t\t\t\t\t\t10:30 \u2013 20:00 Mon \u2013 Sun and Public Holidays\n\t\t\t\t\t\t", "tel": "tel:2388 6823"},
{"title": "OFFICINE PANERAI", "location": "\n\t\t\t\t\t\t\tL1 / Shop 1095", "info": "\n\t\t\t\t\t\t10:30 \u2013 20:00 Mon \u2013 Sun and Public Holidays\n\t\t\t\t\t\t", "tel": "http://ifc.com.hk/mall/shop/scotch-soda/"},
{"title": "OMEGA", "location": "\t\t\t\t\t\t", "info": "\n\t\t\t\t\t\t10:00 \u2013 21:00 Mon \u2013 Sun and Public Holidays\n\t\t\t\t\t\t", "tel": "tel:2543 6331"},
{"title": "PALACE ifc", "location": "\n\t\t\t\t\t\t\tL1 / Shop 1017", "info": "\n\t\t\t\t\t\t10:30 \u2013 19:30 Mon \u2013 FRI", "tel": "http://ifc.com.hk/mall/shop/seed-heritage/"},
{"title": "PANDORA", "location": "\t\t\t\t\t\t", "info": "\n11:00 \u2013 19:30 Sun and Public Holidays\n\t\t\t\t\t\t", "tel": "tel:5992 9025"},
{"title": "Penhaligon\u2019s London", "location": "\n\t\t\t\t\t\t\tL2 / Shop 2024", "info": "\n\t\t\t\t\t\t10:00 \u2013 21:00 Mon \u2013 Sun and Public Holidays\n\t\t\t\t\t\t", "tel": "http://ifc.com.hk/mall/shop/sergio-rossi/"},
{"title": "Perrin Paris", "location": "\t\t\t\t\t\t", "info": "\n\t\t\t\t\t\t10:00 \u2013 21:00 Mon \u2013 Sun and Public Holidays\n\t\t\t\t\t\t", "tel": "tel:2234 7628"},
{"title": "Pomellato", "location": "\n\t\t\t\t\t\t\tL2 / Shop 2033", "info": "\n\t\t\t\t\t\t10:30 \u2013 19:30 Mon \u2013 Sun and Public Holidays\n\t\t\t\t\t\t", "tel": "http://ifc.com.hk/mall/shop/shiseido/"},
{"title": "PRIVATE i SALON", "location": "\t\t\t\t\t\t", "info": "\n\t\t\t\t\t\t10:30 \u2013 20:00 Mon \u2013 Sun and Public Holidays\n\t\t\t\t\t\t", "tel": "http://ifc.com.hk/mall/shop/sk-ii/"},
{"title": "Pure Fitness", "location": "\n\t\t\t\t\t\t\tL1 / Shop 1052A", "info": "\n\t\t\t\t\t\t10:30 \u2013 21:00 Mon-Sun and Public Holidays\n\t\t\t\t\t\t", "tel": "tel:2295 0506"},
{"title": "Qeelin", "location": "\t\t\t\t\t\t", "info": "\n\t\t\t\t\t\t10:00 \u2013 20:00 Mon \u2013 Sun and Public Holidays\n\t\t\t\t\t\t", "tel": "http://ifc.com.hk/mall/shop/smartone/"},
{"title": "RIMOWA(coming soon)", "location": "\n\t\t\t\t\t\t\tL2 / Shop 2058", "info": "\n\t\t\t\t\t\t10:00 \u2013 20:30 Mon \u2013 Sun and Public Holidays\n\t\t\t\t\t\t", "tel": "tel:2408 8676"},
{"title": "Rolex (coming soon)", "location": "\t\t\t\t\t\t", "info": "\n\t\t\t\t\t\t10:00 \u2013 20:30 Mon \u2013 Sat", "tel": "http://ifc.com.hk/mall/shop/stuart-weitzman/"},
{"title": "Rue Madame", "location": "\n\t\t\t\t\t\t\tL2 / Shop 2048 \u2013 49", "info": "\n10:00 \u2013 20:00 Sun and Public Holidays\n\t\t\t\t\t\t", "tel": "tel:22347717"},
{"title": "Salvatore Ferragamo", "location": "\t\t\t\t\t\t", "info": "\n\t\t\t\t\t\t10:30 \u2013 20:30 Mon \u2013 Sun and Public Holidays\n\t\t\t\t\t\t", "tel": "http://ifc.com.hk/mall/shop/sunglass-hut/"},
{"title": "Samsonite", "location": "\n\t\t\t\t\t\t\tL2 / Shop 2065", "info": "\n\t\t\t\t\t\t10:00-21:00 Mon-Thurs", "tel": "tel:2234 7126"},
{"title": "Sandro", "location": "\t\t\t\t\t\t", "info": "\n10:00-20:30 Fri-Sun and Public Holidays\n\t\t\t\t\t\t", "tel": "http://ifc.com.hk/mall/shop/swarovski/"},
{"title": "Scotch & Soda", "location": "\n\t\t\t\t\t\t\tL1 / Shop 1105B", "info": "\n\t\t\t\t\t\t10:00 \u2013 21:00 Mon-Sun and Public Holidays \n\t\t\t\t\t\t", "tel": "tel:2295 0200"},
{"title": "seed", "location": "\t\t\t\t\t\t", "info": "\n\t\t\t\t\t\t10:00 \u2013 21:00 Mon \u2013 Sun and Public Holidays\n\t\t\t\t\t\t", "tel": "http://ifc.com.hk/mall/shop/tag-heuer/"},
{"title": "Sergio Rossi", "location": "\n\t\t\t\t\t\t\tL2 / Shop 2010", "info": "\n\t\t\t\t\t\t10:30 \u2013 20:30 Mon \u2013 Sun and Public Holidays\n\t\t\t\t\t\t", "tel": "tel:2147 2828"},
{"title": "SHISEIDO", "location": "\t\t\t\t\t\t", "info": "\n\t\t\t\t\t\t10:00 \u2013 21:00 Mon-Sun & Public Holidays\n\t\t\t\t\t\t", "tel": "http://ifc.com.hk/mall/shop/tai-pan-row/"},
{"title": "SK-II", "location": "\n\t\t\t\t\t\t\tL1 / Shop 1010", "info": "\n\t\t\t\t\t\t10:30 \u2013 19:30 Mon \u2013 Sun and Public Holidays\n\t\t\t\t\t\t", "tel": "tel:3527 3728"},
{"title": "SmarTone", "location": "\t\t\t\t\t\t", "info": "\n\t\t\t\t\t\t10:00 \u2013 21:00 Mon \u2013 Sun and Public Holidays\n\t\t\t\t\t\t", "tel": "http://ifc.com.hk/mall/shop/theory/"},
{"title": "Stuart Weitzman", "location": "\n\t\t\t\t\t\t\tL2 / Shop 2071", "info": "\n\t\t\t\t\t\t10:00 \u2013 21:00 Mon \u2013 Sun and Public Holidays\n\t\t\t\t\t\t", "tel": "tel:2234 7163"},
{"title": "Sunglass Hut", "location": "\t\t\t\t\t\t", "info": "\n\t\t\t\t\t\t10:00 \u2013 20:30 Mon \u2013 Sun and Public Holidays\n\t\t\t\t\t\t", "tel": "http://ifc.com.hk/mall/shop/tiffany-co/"},
{"title": "Swarovski", "location": "\n\t\t\t\t\t\t\tL2 / Shop 2080", "info": "\n\t\t\t\t\t\t10:00 \u2013 20:30 Mon \u2013 Sun and Public Holidays\n\t\t\t\t\t\t", "tel": "tel:2234 7802"},
{"title": "TAG Heuer", "location": "\t\t\t\t\t\t", "info": "\n\t\t\t\t\t\t10:00 \u2013 22:00 Mon \u2013 Sun and Public Holidays\n\t\t\t\t\t\t", "tel": "http://ifc.com.hk/mall/shop/tom-ford/"},
{"title": "Tai Pan Row", "location": "\n\t\t\t\t\t\t\tL1 / Shop 1037", "info": "\n\t\t\t\t\t\t\t\t\t\t\t\t", "tel": "tel:2234 7282"},
{"title": "Theory", "location": "\t\t\t\t\t\t", "info": "\n\t\t\t\t\t\t09:00 \u2013 21:30 Mon \u2013 Sat", "tel": "http://ifc.com.hk/mall/shop/tory-burch/"},
{"title": "Tiffany & Co.", "location": "\n\t\t\t\t\t\t\tL3 / Shop 3090", "info": "\n10:00 \u2013 21:30 Sun and Public Holidays\n\t\t\t\t\t\t", "tel": "tel:2234 7878"},
{"title": "TOM FORD", "location": "\t\t\t\t\t\t", "info": "\n\t\t\t\t\t\t10:30 \u2013 21:00 Mon \u2013 Sun and Public Holidays\n\t\t\t\t\t\t", "tel": "http://ifc.com.hk/mall/shop/travelex-worldwide-money/"},
{"title": "TORY BURCH", "location": "\n\t\t\t\t\t\t\tL3 / Shop 3092A", "info": "\n\t\t\t\t\t\t10:00 \u2013 22:00 Sun \u2013 Thurs and Public holidays", "tel": "tel:2790 1912"},
{"title": "Travelex worldwide money", "location": "\t\t\t\t\t\t", "info": "\n10:00 \u2013 22:30 Fri \u2013 Sat \n\t\t\t\t\t\t", "tel": "http://ifc.com.hk/mall/shop/tumi/"},
{"title": "TUMI", "location": "\n\t\t\t\t\t\t\tL3 / Shop 3015", "info": "\n\t\t\t\t\t\t10:00 \u2013 22:00 Mon \u2013 Sun and Public Holidays\n\t\t\t\t\t\t", "tel": "tel:2117 0196"},
{"title": "Vacheron Constantin", "location": "\t\t\t\t\t\t", "info": "\n\t\t\t\t\t\tMon-Sun and Public Holiday : 10am \u2013 8pm\n\t\t\t\t\t\t", "tel": "http://ifc.com.hk/mall/shop/vacheron-constantin/"},
{"title": "Valentino", "location": "\n\t\t\t\t\t\t\tL3 / Shop 3019", "info": "\n\t\t\t\t\t\t10:30 \u2013 20:00 Mon \u2013 Sun and Public Holidays\n\t\t\t\t\t\t", "tel": "tel:2234 7193"},
{"title": "Valextra", "location": "\t\t\t\t\t\t", "info": "\n\t\t\t\t\t\t10:30 \u2013 20:00 Mon \u2013 Sun and Public Holidays\n\t\t\t\t\t\t", "tel": "http://ifc.com.hk/mall/shop/valentino/"},
{"title": "VICTORIA\u2019S SECRET Beauty and Accessories", "location": "\n\t\t\t\t\t\t\tL2 / Shop 2063", "info": "\n\t\t\t\t\t\t10:00 \u2013 21:00 Mon \u2013 Sun and Public Holidays\n\t\t\t\t\t\t", "tel": "tel:2609 5518"},
{"title": "Victorinox", "location": "\t\t\t\t\t\t", "info": "\n\t\t\t\t\t\t10:00 \u2013 20:30 Mon \u2013 Sun and Public Holidays\n\t\t\t\t\t\t", "tel": "http://ifc.com.hk/mall/shop/valextra/"},
{"title": "VILEBREQUIN", "location": "\n\t\t\t\t\t\t\tL1 / Shop 1036", "info": "\n\t\t\t\t\t\t10:30 \u2013 20:00 Mon \u2013 Sun and Public Holidays\n\t\t\t\t\t\t", "tel": "tel:2865 7999"},
{"title": "Watsons b\u00e9b\u00e9", "location": "\t\t\t\t\t\t", "info": "\n\t\t\t\t\t\t10:00 \u2013 21:00 Mon \u2013 Sun and Public Holidays\n\t\t\t\t\t\t", "tel": "http://ifc.com.hk/mall/shop/victorias-secret-beauty-and-accessories/"},
{"title": "Watson\u2019s Wine", "location": "\n\t\t\t\t\t\t\tL2 / Shop 2012", "info": "\n\t\t\t\t\t\t10:00 \u2013 21:00 Mon \u2013 Sun and Public Holidays\n\t\t\t\t\t\t", "tel": "tel:2730 1847"},
{"title": "Wellendorff", "location": "\t\t\t\t\t\t", "info": "\n\t\t\t\t\t\t10:00 \u2013 20:00 Mon \u2013 Sun and Public Holidays\n\t\t\t\t\t\t", "tel": "http://ifc.com.hk/mall/shop/victorinox/"},
{"title": "Whistles", "location": "\n\t\t\t\t\t\t\tL2 / Shop 2089A", "info": "\n\t\t\t\t\t\t10:00 \u2013 21:00 Mon \u2013 Sun and Public Holidays\n\t\t\t\t\t\t", "tel": "tel:2295 1883"},
{"title": "Wise-Kids Toys", "location": "\t\t\t\t\t\t", "info": "\n\t\t\t\t\t\t10:00 \u2013 22:00 Mon \u2013 Fri", "tel": "http://ifc.com.hk/mall/shop/vilebrequin/"},
{"title": "WOLFORD", "location": "\n\t\t\t\t\t\t\tL1 / Shop 1079", "info": "\n08:30 \u2013 24:00 Sat", "tel": "tel:26705619"},
{"title": "YSL Beaute", "location": "\t\t\t\t\t\t", "info": "\n08:30 \u2013 22:00 Sun and Public Holidays\n\t\t\t\t\t\t", "tel": "http://ifc.com.hk/mall/shop/watsons-bebe/"},
{"title": "Zara", "location": "\n\t\t\t\t\t\t\tL1 / Shop 1065 \u2013 75", "info": "\n\t\t\t\t\t\t10:00 \u2013 21:00 Mon \u2013 Sun and Public Holidays\n\t\t\t\t\t\t", "tel": "tel:2530 5002"}
]