[
{"title": "1234.93 K", "location": "101", "tel": "55015867"},
{"title": "81 Freshmart", "location": "Kiosk, B2", "tel": "81009696"},
{"title": "A LA CARTE", "location": "201", "tel": "31517512"},
{"title": "ABC Cooking Studio", "location": "108 - 109", "tel": "23367022"},
{"title": "AbouThai", "location": "Kiosk, B1", "tel": "31188664"},
{"title": "agnès b. RUE DE MARSEILLE", "location": "G26, G28, 119", "tel": "31224282"},
{"title": "AIGLE", "location": "104", "tel": "31224488"},
{"title": "ASICS", "location": "G36", "tel": "27368816"},
{"title": "AV Life Prestige", "location": "B105", "tel": "28913398"},
{"title": "b. DÉLICES & b. FLEURISTE at agnès b. Rue de Marseille", "location": "119", "tel": "31224282"},
{"title": "Backers", "location": "Kiosk, B1", "tel": "31224133"},
{"title": "BIRKENSTOCK", "location": "223", "tel": "23761234"},
{"title": "Borghese", "location": "B203A", "tel": "27362266"},
{"title": "B’IN Select", "location": "101", "tel": "59771668"},
{"title": "C.P.U", "location": "121-122", "tel": "27119600"},
{"title": "Calvin Klein Jeans", "location": "G11, G24", "tel": "31224187"},
{"title": "Calvin Klein Performance", "location": "G25", "tel": "24816811"},
{"title": "Calvin Klein Underwear", "location": "218", "tel": "31224153"},
{"title": "Calvin Klein Watches + jewelry", "location": "B212", "tel": "25105260"},
{"title": "Caskells", "location": "B102", "tel": "31064002"},
{"title": "Cheese BB", "location": "201", "tel": "-"},
{"title": "ChikaLicious Cupcakes", "location": "Kiosk, B2", "tel": "27393311"},
{"title": "Chow Tai Fook", "location": "G06, 113", "tel": "25370775"},
{"title": "Clarks ORIGINALS", "location": "B224", "tel": "24761688"},
{"title": "Columbia", "location": "203", "tel": "31883377"},
{"title": "Cookie Galerie", "location": "B111C", "tel": "25618122"},
{"title": "côte&ciel", "location": "217B", "tel": "27220487"},
{"title": "Crabtree & Evelyn", "location": "Kiosk, B2", "tel": "23675098"},
{"title": "CTF Watch", "location": "G02-G04 & G17-G18", "tel": "31882589"},
{"title": "D-Barn", "location": "303", "tel": "35869515"},
{"title": "D-mop zone", "location": "B205 - B206, B208 - B210A", "tel": "21435238"},
{"title": "DEMK", "location": "120B", "tel": "39745494"},
{"title": "Diamanti Per Tutti", "location": "G15A", "tel": "31882139"},
{"title": "Dr. Ci:Labo", "location": "B210B", "tel": "23273878"},
{"title": "Dr. Martens", "location": "106", "tel": "36223946"},
{"title": "Duras", "location": "B230A", "tel": "26280616"},
{"title": "Easy123 Dining & Cooking Studio", "location": "221", "tel": "35831250"},
{"title": "ecoG", "location": "B211", "tel": "65967046"},
{"title": "Edgar", "location": "201", "tel": "37554898"},
{"title": "EONIQ", "location": "shop 9 of 201", "tel": "22612799"},
{"title": "FEDON", "location": "G10", "tel": "31224031"},
{"title": "FILA", "location": "214-215", "tel": "23667790"},
{"title": "Flavor Dresser", "location": "B220", "tel": "26822789"},
{"title": "FLORTÉ", "location": "B101B", "tel": "34283908"},
{"title": "fokka.", "location": "101", "tel": "35498920"},
{"title": "Fortress", "location": "B107", "tel": "27693778"},
{"title": "FRAY I.D", "location": "G29", "tel": "29180628"},
{"title": "Furla", "location": "G14", "tel": "23919218"},
{"title": "Gelato Pique", "location": "B229B", "tel": "31161332"},
{"title": "Global Timepieces", "location": "G01", "tel": "26175699"},
{"title": "Haglöfs", "location": "212", "tel": "31224455"},
{"title": "HAIR CORNER", "location": "208", "tel": "36210473"},
{"title": "HAKGRID", "location": "101", "tel": "25189832"},
{"title": "Hamilton", "location": "G16", "tel": "68844877"},
{"title": "Happiness Mart", "location": "Kiosk, B1", "tel": "95242837"},
{"title": "Harrison Wong", "location": "309", "tel": "-"},
{"title": "Hedgren", "location": "Kiosk, 2F", "tel": "23752626"},
{"title": "Hexapi", "location": "201", "tel": "27693628"},
{"title": "Hiroshi 宏", "location": "Kiosk, B2", "tel": "31224089"},
{"title": "Homie Cookies", "location": "Kiosk, B1", "tel": "31224131"},
{"title": "Honey mi Honey", "location": "B231B", "tel": "31763511"},
{"title": "House of Samsonite", "location": "204", "tel": "31105898"},
{"title": "I Love Kitchen", "location": "B106", "tel": "31224113"},
{"title": "Isabelle", "location": "Kiosk, B2", "tel": "39710500"},
{"title": "JNBY&速写", "location": "114-115", "tel": "31224088"},
{"title": "K11 Design Store", "location": "105, 110 & 111", "tel": "34884003"},
{"title": "Kapok", "location": "101 & 302", "tel": "37582529"},
{"title": "KINSOLE", "location": "307", "tel": "31700222"},
{"title": "Klasse14", "location": "101", "tel": "31224037"},
{"title": "L'OCCITANE", "location": "B214", "tel": "31224066"},
{"title": "Le' Sean Seasons Florist", "location": "Kiosk, B2", "tel": "98894198"},
{"title": "LensCrafters", "location": "B104", "tel": "31224027"},
{"title": "Life Kan", "location": "301", "tel": "29920132"},
{"title": "LOUIS QUATORZE ", "location": "Kiosk, 1F", "tel": "27693638"},
{"title": "Maison Bremond 1830", "location": "201", "tel": "31224272"},
{"title": "Mannings", "location": "B108-110", "tel": "27217721"},
{"title": "Market Place by Jasons", "location": "B111 - B121", "tel": "34882097"},
{"title": "MATTER MATTERS GALLERY", "location": "101", "tel": "35847877"},
{"title": "Melvita", "location": "B203B", "tel": "26692467"},
{"title": "MENARD", "location": "B204", "tel": "26090077"},
{"title": "Mila Owen", "location": "B230B & B231A", "tel": "23665199"},
{"title": "millie's", "location": "B221", "tel": "35860526"},
{"title": "MIOGGI SPA", "location": "206 & 207", "tel": "21561055"},
{"title": "Miss Sixty", "location": "116", "tel": "61996962"},
{"title": "Mixology", "location": "101", "tel": "27220478"},
{"title": "Moleskine", "location": "112", "tel": "31702466"},
{"title": "Moss McBlack", "location": "B225", "tel": "26598138"},
{"title": "Motherhouse", "location": "103", "tel": "21179285"},
{"title": "Mr. Organic", "location": "Kiosk, B1", "tel": "23689928"},
{"title": "NAIL BAR", "location": "B223", "tel": "28909882"},
{"title": "No Brand No Name", "location": "120A", "tel": "35905268"},
{"title": "O+2", "location": "306", "tel": "53367883"},
{"title": "Offline Stall", "location": "308", "tel": "31189490"},
{"title": "Omega", "location": "G05", "tel": "31224402"},
{"title": "ORiental TRaffic", "location": "B228", "tel": "27220988"},
{"title": "Pamycarie", "location": "B218", "tel": "-"},
{"title": "PANDORA", "location": "G12", "tel": "2558 8031"},
{"title": "Patisserie Jeffery Koo", "location": "B122B", "tel": "31770586"},
{"title": "PAUL & JOE BEAUTE", "location": "B202", "tel": "52196517"},
{"title": "Pinkicon", "location": "B217", "tel": "27693768"},
{"title": "Pokémon Hub", "location": "217A", "tel": "68844877"},
{"title": "Recognition", "location": "101", "tel": "31224108"},
{"title": "ro", "location": "104A", "tel": "27287768"},
{"title": "ROCKPORT", "location": "216", "tel": "31103898"},
{"title": "Sassou", "location": "Kiosk, B2", "tel": "25744706"},
{"title": "Scatil", "location": "Kiosk, 2F", "tel": "25588008"},
{"title": "Simplii Yours", "location": "shop 1 - 3 of 201", "tel": "21470800"},
{"title": "Sinequanone", "location": "G27", "tel": "31885206"},
{"title": "Skin Inc", "location": "Kiosk, B2", "tel": "23750330"},
{"title": "snidel", "location": "B215", "tel": "22173059"},
{"title": "SON OF A KING", "location": "101", "tel": "23750002"},
{"title": "Sportshouse", "location": "222", "tel": "31224077"},
{"title": "Stars & Tart", "location": "101", "tel": "21100737"},
{"title": "Sunglass Hut", "location": "Kiosk, GF", "tel": "23111362"},
{"title": "Sweet Boutique de Tony Wong", "location": "B122A", "tel": "37554340"},
{"title": "SWY", "location": "B222", "tel": "28939116"},
{"title": "TaylorMade - adidas Golf Concept Shop", "location": "213", "tel": "31224142"},
{"title": "THE NEXT DOOR", "location": "shop 4 of 201", "tel": "54092576"},
{"title": "The North Face", "location": "205", "tel": "35869468"},
{"title": "The North Face Urban Exploration", "location": "G13", "tel": "92639647"}
]